[
  {
    "STATION": "USC00264349",
    "DATE": "2018-12",
    "LATITUDE": "39.4688",
    "LONGITUDE": "-119.0644",
    "NAME": "LAHONTAN DAM, NV US",
    "PRCP": "19.4",
    "TAVG": "2.17"
  },
  {
    "STATION": "USW00003822",
    "DATE": "2018-12",
    "LATITUDE": "32.13133",
    "LONGITUDE": "-81.20237",
    "NAME": "SAVANNAH INTERNATIONAL AIRPORT, GA US",
    "PRCP": "206.9",
    "TAVG": "12.49"
  },
  {
    "STATION": "ASN00009964",
    "DATE": "2018-12",
    "LATITUDE": "-34.5714",
    "LONGITUDE": "117.0106",
    "NAME": "ROCKY GULLY, AS",
    "PRCP": "20.2",
    "TAVG": "18.13"
  },
  {
    "STATION": "MLM00061233",
    "DATE": "2018-12",
    "LATITUDE": "15.167",
    "LONGITUDE": "-7.283",
    "NAME": "NARA KEIBANE, ML",
    "PRCP": "",
    "TAVG": "24.89"
  },
  {
    "STATION": "USC00412084",
    "DATE": "2018-12",
    "LATITUDE": "31.67278",
    "LONGITUDE": "-102.41333",
    "NAME": "CRANE 10 N, TX US",
    "PRCP": "28.5",
    "TAVG": "7.20"
  },
  {
    "STATION": "USC00046144",
    "DATE": "2018-12",
    "LATITUDE": "37.5147",
    "LONGITUDE": "-122.0325",
    "NAME": "NEWARK, CA US",
    "PRCP": "32.3",
    "TAVG": "11.61"
  },
  {
    "STATION": "CA003012818",
    "DATE": "2018-12",
    "LATITUDE": "53.8333",
    "LONGITUDE": "-114.5333",
    "NAME": "GLENEVIS AGCM, AB CA",
    "PRCP": "",
    "TAVG": "-5.93"
  },
  {
    "STATION": "RMC00914487",
    "DATE": "2018-12",
    "LATITUDE": "6.08333",
    "LONGITUDE": "171.73333",
    "NAME": "MILI, MH RM",
    "PRCP": "304.8",
    "TAVG": "28.17"
  },
  {
    "STATION": "ASN00061366",
    "DATE": "2018-12",
    "LATITUDE": "-33.2815",
    "LONGITUDE": "151.5766",
    "NAME": "NORAH HEAD AWS, AS",
    "PRCP": "48.4",
    "TAVG": "22.45"
  },
  {
    "STATION": "USW00023258",
    "DATE": "2018-12",
    "LATITUDE": "37.6241",
    "LONGITUDE": "-120.9505",
    "NAME": "MODESTO CITY CO AIRPORT, CA US",
    "PRCP": "52.7",
    "TAVG": "9.53"
  },
  {
    "STATION": "CA007034482",
    "DATE": "2018-12",
    "LATITUDE": "46.2667",
    "LONGITUDE": "-76.0",
    "NAME": "MANIWAKI AIRPORT, QC CA",
    "PRCP": "79.4",
    "TAVG": "-9.04"
  },
  {
    "STATION": "USC00462211",
    "DATE": "2018-12",
    "LATITUDE": "39.098",
    "LONGITUDE": "-79.4322",
    "NAME": "DAVIS 3 SE, WV US",
    "PRCP": "136.8",
    "TAVG": "-0.90"
  },
  {
    "STATION": "USC00040521",
    "DATE": "2018-12",
    "LATITUDE": "34.8927",
    "LONGITUDE": "-117.0219",
    "NAME": "BARSTOW, CA US",
    "PRCP": "28.5",
    "TAVG": "8.37"
  },
  {
    "STATION": "USC00366238",
    "DATE": "2018-12",
    "LATITUDE": "40.075",
    "LONGITUDE": "-76.0717",
    "NAME": "NEW HOLLAND 2 SE, PA US",
    "PRCP": "104.7",
    "TAVG": "3.39"
  },
  {
    "STATION": "USC00157049",
    "DATE": "2018-12",
    "LATITUDE": "36.855",
    "LONGITUDE": "-86.8883",
    "NAME": "RUSSELLVILLE, KY US",
    "PRCP": "137.0",
    "TAVG": "4.91"
  },
  {
    "STATION": "USC00207188",
    "DATE": "2018-12",
    "LATITUDE": "46.19076",
    "LONGITUDE": "-84.50852",
    "NAME": "RUDYARD 5 SE, MI US",
    "PRCP": "46.2",
    "TAVG": "-4.39"
  },
  {
    "STATION": "CA008401705",
    "DATE": "2018-12",
    "LATITUDE": "48.95",
    "LONGITUDE": "-54.5667",
    "NAME": "GANDER AIRPORT CS, NL CA",
    "PRCP": "40.9",
    "TAVG": "-4.91"
  },
  {
    "STATION": "USC00358498",
    "DATE": "2018-12",
    "LATITUDE": "45.4294",
    "LONGITUDE": "-123.7619",
    "NAME": "TILLAMOOK 6 SE, OR US",
    "PRCP": "263.4",
    "TAVG": "6.79"
  },
  {
    "STATION": "ASN00014909",
    "DATE": "2018-12",
    "LATITUDE": "-13.3275",
    "LONGITUDE": "133.0861",
    "NAME": "CENTRAL ARNHEM PLATEAU, AS",
    "PRCP": "142.4",
    "TAVG": "29.27"
  },
  {
    "STATION": "MAM00067023",
    "DATE": "2018-12",
    "LATITUDE": "-14.279",
    "LONGITUDE": "50.175",
    "NAME": "SAMBAVA, MA",
    "PRCP": "",
    "TAVG": "27.62"
  },
  {
    "STATION": "USC00188371",
    "DATE": "2018-12",
    "LATITUDE": "39.66346",
    "LONGITUDE": "-77.58309",
    "NAME": "SMITHSBURG 2 NW, MD US",
    "PRCP": "128.5",
    "TAVG": "1.50"
  },
  {
    "STATION": "USS0011J46S",
    "DATE": "2018-12",
    "LATITUDE": "40.61",
    "LONGITUDE": "-111.1",
    "NAME": "BEAVER DIVIDE, UT US",
    "PRCP": "35.4",
    "TAVG": "-5.47"
  },
  {
    "STATION": "SF000782270",
    "DATE": "2018-12",
    "LATITUDE": "-32.783",
    "LONGITUDE": "26.633",
    "NAME": "FORT BEAUFORT, SF",
    "PRCP": "",
    "TAVG": "25.63"
  },
  {
    "STATION": "USW00063898",
    "DATE": "2018-12",
    "LATITUDE": "38.8882",
    "LONGITUDE": "-86.5707",
    "NAME": "BEDFORD 5 WNW, IN US",
    "PRCP": "138.1",
    "TAVG": "3.84"
  },
  {
    "STATION": "USW00004803",
    "DATE": "2018-12",
    "LATITUDE": "45.6314",
    "LONGITUDE": "-89.4823",
    "NAME": "RHINELANDER ONEIDA CO AIRPORT, WI US",
    "PRCP": "29.0",
    "TAVG": "-4.19"
  },
  {
    "STATION": "USC00419847",
    "DATE": "2018-12",
    "LATITUDE": "32.0444",
    "LONGITUDE": "-100.1078",
    "NAME": "WINGATE, TX US",
    "PRCP": "80.5",
    "TAVG": "6.69"
  },
  {
    "STATION": "USC00215598",
    "DATE": "2018-12",
    "LATITUDE": "46.4378",
    "LONGITUDE": "-92.7578",
    "NAME": "MOOSE LAKE 1 SSE, MN US",
    "PRCP": "35.9",
    "TAVG": "-6.48"
  },
  {
    "STATION": "CA001030230",
    "DATE": "2018-12",
    "LATITUDE": "49.3333",
    "LONGITUDE": "-124.9833",
    "NAME": "ALBERNI ROBERTSON CREEK, BC CA",
    "PRCP": "598.9",
    "TAVG": "2.90"
  },
  {
    "STATION": "USS0005J05S",
    "DATE": "2018-12",
    "LATITUDE": "40.2",
    "LONGITUDE": "-105.6",
    "NAME": "WILD BASIN, CO US",
    "PRCP": "27.6",
    "TAVG": "-5.25"
  },
  {
    "STATION": "USW00012907",
    "DATE": "2018-12",
    "LATITUDE": "27.53333",
    "LONGITUDE": "-99.46667",
    "NAME": "LAREDO INTERNATIONAL AIRPORT, TX US",
    "PRCP": "32.4",
    "TAVG": "15.33"
  },
  {
    "STATION": "GME00123838",
    "DATE": "2018-12",
    "LATITUDE": "50.5917",
    "LONGITUDE": "12.7156",
    "NAME": "AUE, GM",
    "PRCP": "131.2",
    "TAVG": "3.21"
  },
  {
    "STATION": "USS0015C06S",
    "DATE": "2018-12",
    "LATITUDE": "46.48",
    "LONGITUDE": "-115.63",
    "NAME": "HEMLOCK BUTTE, ID US",
    "PRCP": "159.8",
    "TAVG": "-3.18"
  },
  {
    "STATION": "USC00488192",
    "DATE": "2018-12",
    "LATITUDE": "42.3703",
    "LONGITUDE": "-106.1049",
    "NAME": "SHIRLEY BASIN, WY US",
    "PRCP": "",
    "TAVG": "-12.19"
  },
  {
    "STATION": "USC00465224",
    "DATE": "2018-12",
    "LATITUDE": "37.8566",
    "LONGITUDE": "-80.4042",
    "NAME": "LEWISBURG 3 N, WV US",
    "PRCP": "99.5",
    "TAVG": "1.93"
  },
  {
    "STATION": "USW00026491",
    "DATE": "2018-12",
    "LATITUDE": "61.17806",
    "LONGITUDE": "-149.96639",
    "NAME": "ANCHORAGE LAKE HOOD SEA PLANE BASE, AK US",
    "PRCP": "",
    "TAVG": "-4.64"
  },
  {
    "STATION": "SPE00156486",
    "DATE": "2018-12",
    "LATITUDE": "41.5656",
    "LONGITUDE": "2.0692",
    "NAME": "SABADELL PARC AGRARI, SP",
    "PRCP": "3.2",
    "TAVG": "9.26"
  },
  {
    "STATION": "USW00024286",
    "DATE": "2018-12",
    "LATITUDE": "41.78028",
    "LONGITUDE": "-124.23667",
    "NAME": "CRESCENT CITY MCNAMARA AIRPORT, CA US",
    "PRCP": "181.7",
    "TAVG": "8.80"
  },
  {
    "STATION": "SWE00140958",
    "DATE": "2018-12",
    "LATITUDE": "68.44",
    "LONGITUDE": "22.45",
    "NAME": "KARESUANDO A, SW",
    "PRCP": "25.1",
    "TAVG": "-10.47"
  },
  {
    "STATION": "USC00203477",
    "DATE": "2018-12",
    "LATITUDE": "42.4077",
    "LONGITUDE": "-82.8891",
    "NAME": "GROSSE POINTE FARMS, MI US",
    "PRCP": "42.1",
    "TAVG": "1.05"
  },
  {
    "STATION": "CA00504K80K",
    "DATE": "2018-12",
    "LATITUDE": "52.1167",
    "LONGITUDE": "-101.2333",
    "NAME": "SWAN RIVER RCS, MB CA",
    "PRCP": "6.4",
    "TAVG": "-10.97"
  },
  {
    "STATION": "GME00128038",
    "DATE": "2018-12",
    "LATITUDE": "49.6478",
    "LONGITUDE": "7.8842",
    "NAME": "RUPPERTSECKEN, GM",
    "PRCP": "127.0",
    "TAVG": "3.38"
  },
  {
    "STATION": "USC00176722",
    "DATE": "2018-12",
    "LATITUDE": "45.8909",
    "LONGITUDE": "-69.9646",
    "NAME": "PITTSTON FARMS NEPP, ME US",
    "PRCP": "91.9",
    "TAVG": "-8.65"
  },
  {
    "STATION": "NOE00134454",
    "DATE": "2018-12",
    "LATITUDE": "61.2928",
    "LONGITUDE": "5.0442",
    "NAME": "FURENESET, NO",
    "PRCP": "198.6",
    "TAVG": "3.68"
  },
  {
    "STATION": "USW00063867",
    "DATE": "2018-12",
    "LATITUDE": "34.1954",
    "LONGITUDE": "-86.7963",
    "NAME": "CULLMAN 3 ENE, AL US",
    "PRCP": "282.7",
    "TAVG": "7.21"
  },
  {
    "STATION": "USC00341644",
    "DATE": "2018-12",
    "LATITUDE": "34.60889",
    "LONGITUDE": "-96.33306",
    "NAME": "CENTRAHOMA 1 E MESONET, OK US",
    "PRCP": "176.4",
    "TAVG": "6.26"
  },
  {
    "STATION": "USC00267697",
    "DATE": "2018-12",
    "LATITUDE": "39.5558",
    "LONGITUDE": "-119.7333",
    "NAME": "SPARKS, NV US",
    "PRCP": "20.2",
    "TAVG": "2.49"
  },
  {
    "STATION": "USS0020B24S",
    "DATE": "2018-12",
    "LATITUDE": "47.99",
    "LONGITUDE": "-120.57",
    "NAME": "POPE RIDGE, WA US",
    "PRCP": "172.5",
    "TAVG": "-1.86"
  },
  {
    "STATION": "USC00033242",
    "DATE": "2018-12",
    "LATITUDE": "34.5211",
    "LONGITUDE": "-90.5899",
    "NAME": "HELENA, AR US",
    "PRCP": "226.2",
    "TAVG": "7.08"
  },
  {
    "STATION": "CA006070QK6",
    "DATE": "2018-12",
    "LATITUDE": "49.3833",
    "LONGITUDE": "-82.1167",
    "NAME": "BONNER LAKE, ON CA",
    "PRCP": "39.0",
    "TAVG": "-11.16"
  },
  {
    "STATION": "USC00365902",
    "DATE": "2018-12",
    "LATITUDE": "40.6474",
    "LONGITUDE": "-80.3861",
    "NAME": "MONTGOMERY LOCK AND DAM, PA US",
    "PRCP": "78.7",
    "TAVG": "1.44"
  },
  {
    "STATION": "USC00454748",
    "DATE": "2018-12",
    "LATITUDE": "46.3675",
    "LONGITUDE": "-124.0377",
    "NAME": "LONG BEACH EXPERIMENT STATION, WA US",
    "PRCP": "331.8",
    "TAVG": "7.13"
  },
  {
    "STATION": "USC00451630",
    "DATE": "2018-12",
    "LATITUDE": "48.56784",
    "LONGITUDE": "-117.93545",
    "NAME": "COLVILLE, WA US",
    "PRCP": "68.2",
    "TAVG": "-0.94"
  },
  {
    "STATION": "SWE00137534",
    "DATE": "2018-12",
    "LATITUDE": "55.5714",
    "LONGITUDE": "13.0731",
    "NAME": "MALMO A, SW",
    "PRCP": "90.1",
    "TAVG": "3.83"
  },
  {
    "STATION": "USS0020K27S",
    "DATE": "2018-12",
    "LATITUDE": "39.17",
    "LONGITUDE": "-120.15",
    "NAME": "TAHOE CITY CROSS, CA US",
    "PRCP": "78.7",
    "TAVG": "1.37"
  },
  {
    "STATION": "USS0021D35S",
    "DATE": "2018-12",
    "LATITUDE": "45.25",
    "LONGITUDE": "-121.74",
    "NAME": "MUD RIDGE, OR US",
    "PRCP": "304.7",
    "TAVG": "-0.39"
  },
  {
    "STATION": "USW00003177",
    "DATE": "2018-12",
    "LATITUDE": "33.12806",
    "LONGITUDE": "-117.27944",
    "NAME": "CARLSBAD MCCLELLAN PALOMAR AIRPORT, CA US",
    "PRCP": "43.7",
    "TAVG": "13.90"
  },
  {
    "STATION": "USC00481175",
    "DATE": "2018-12",
    "LATITUDE": "44.50747",
    "LONGITUDE": "-109.16745",
    "NAME": "BUFFALO BILL DAM, WY US",
    "PRCP": "10.7",
    "TAVG": "-2.53"
  },
  {
    "STATION": "USC00163313",
    "DATE": "2018-12",
    "LATITUDE": "29.8233",
    "LONGITUDE": "-91.5441",
    "NAME": "FRANKLIN 3 NW, LA US",
    "PRCP": "187.4",
    "TAVG": "13.49"
  },
  {
    "STATION": "USC00032148",
    "DATE": "2018-12",
    "LATITUDE": "33.88852",
    "LONGITUDE": "-91.53161",
    "NAME": "DUMAS, AR US",
    "PRCP": "255.3",
    "TAVG": "7.83"
  },
  {
    "STATION": "USC00170409",
    "DATE": "2018-12",
    "LATITUDE": "43.9316",
    "LONGITUDE": "-69.8564",
    "NAME": "BATH, ME US",
    "PRCP": "78.6",
    "TAVG": "-3.08"
  },
  {
    "STATION": "CA007022579",
    "DATE": "2018-12",
    "LATITUDE": "45.05",
    "LONGITUDE": "-72.8667",
    "NAME": "FRELIGHSBURG, QC CA",
    "PRCP": "118.2",
    "TAVG": "-4.59"
  },
  {
    "STATION": "USS0006J15S",
    "DATE": "2018-12",
    "LATITUDE": "40.85",
    "LONGITUDE": "-106.97",
    "NAME": "ELK RIVER, CO US",
    "PRCP": "50.3",
    "TAVG": "-6.14"
  },
  {
    "STATION": "USC00291883",
    "DATE": "2018-12",
    "LATITUDE": "36.4594",
    "LONGITUDE": "-103.1997",
    "NAME": "CLAYTON 1 N, NM US",
    "PRCP": "100.6",
    "TAVG": "0.09"
  },
  {
    "STATION": "USC00054742",
    "DATE": "2018-12",
    "LATITUDE": "38.9075",
    "LONGITUDE": "-105.4705",
    "NAME": "LAKE GEORGE 8 SW, CO US",
    "PRCP": "2.1",
    "TAVG": "-7.60"
  },
  {
    "STATION": "ASN00003093",
    "DATE": "2018-12",
    "LATITUDE": "-18.1814",
    "LONGITUDE": "125.5619",
    "NAME": "FITZROY CROSSING AERO, AS",
    "PRCP": "38.2",
    "TAVG": "34.97"
  },
  {
    "STATION": "ASN00023343",
    "DATE": "2018-12",
    "LATITUDE": "-34.5519",
    "LONGITUDE": "138.8342",
    "NAME": "ROSEDALE TURRETFIELD RESEARCH, AS",
    "PRCP": "21.4",
    "TAVG": "23.55"
  },
  {
    "STATION": "ASN00064008",
    "DATE": "2018-12",
    "LATITUDE": "-31.2712",
    "LONGITUDE": "149.2714",
    "NAME": "COONABARABRAN NAMOI STREET, AS",
    "PRCP": "51.3",
    "TAVG": "23.93"
  },
  {
    "STATION": "USC00506581",
    "DATE": "2018-12",
    "LATITUDE": "64.7581",
    "LONGITUDE": "-147.3253",
    "NAME": "NORTH POLE, AK US",
    "PRCP": "7.2",
    "TAVG": "-18.06"
  },
  {
    "STATION": "USC00426123",
    "DATE": "2018-12",
    "LATITUDE": "40.4178",
    "LONGITUDE": "-110.0511",
    "NAME": "NEOLA, UT US",
    "PRCP": "8.1",
    "TAVG": "-4.94"
  },
  {
    "STATION": "GME00102404",
    "DATE": "2018-12",
    "LATITUDE": "47.6781",
    "LONGITUDE": "9.1908",
    "NAME": "KONSTANZ, GM",
    "PRCP": "72.7",
    "TAVG": "4.17"
  },
  {
    "STATION": "USC00351682",
    "DATE": "2018-12",
    "LATITUDE": "45.205",
    "LONGITUDE": "-123.8925",
    "NAME": "CLOVERDALE, OR US",
    "PRCP": "252.3",
    "TAVG": "8.13"
  },
  {
    "STATION": "USW00013833",
    "DATE": "2018-12",
    "LATITUDE": "31.28194",
    "LONGITUDE": "-89.25306",
    "NAME": "HATTIESBURG CHAIN MUNICIPAL AIRPORT, MS US",
    "PRCP": "326.5",
    "TAVG": "11.56"
  },
  {
    "STATION": "USC00044223",
    "DATE": "2018-12",
    "LATITUDE": "32.8488",
    "LONGITUDE": "-115.5666",
    "NAME": "IMPERIAL, CA US",
    "PRCP": "30.2",
    "TAVG": "12.77"
  },
  {
    "STATION": "USS0015B14S",
    "DATE": "2018-12",
    "LATITUDE": "47.07",
    "LONGITUDE": "-115.96",
    "NAME": "LOST LAKE, ID US",
    "PRCP": "233.6",
    "TAVG": "-4.13"
  },
  {
    "STATION": "SPE00156135",
    "DATE": "2018-12",
    "LATITUDE": "42.3858",
    "LONGITUDE": "1.8664",
    "NAME": "DAS AERODROM, SP",
    "PRCP": "7.9",
    "TAVG": "4.08"
  },
  {
    "STATION": "USC00114400",
    "DATE": "2018-12",
    "LATITUDE": "38.49321",
    "LONGITUDE": "-88.97073",
    "NAME": "IUKA 12 SW, IL US",
    "PRCP": "84.1",
    "TAVG": "3.04"
  },
  {
    "STATION": "ASN00022049",
    "DATE": "2018-12",
    "LATITUDE": "-35.2795",
    "LONGITUDE": "136.9392",
    "NAME": "STENHOUSE BAY, AS",
    "PRCP": "9.8",
    "TAVG": "20.06"
  },
  {
    "STATION": "USW00094790",
    "DATE": "2018-12",
    "LATITUDE": "43.98867",
    "LONGITUDE": "-76.02623",
    "NAME": "WATERTOWN AIRPORT, NY US",
    "PRCP": "84.8",
    "TAVG": "-2.34"
  },
  {
    "STATION": "USC00286864",
    "DATE": "2018-12",
    "LATITUDE": "39.96617",
    "LONGITUDE": "-75.02186",
    "NAME": "PENNSAUKEN 1 N, NJ US",
    "PRCP": "128.0",
    "TAVG": "3.05"
  },
  {
    "STATION": "GME00131794",
    "DATE": "2018-12",
    "LATITUDE": "52.0106",
    "LONGITUDE": "10.3956",
    "NAME": "LIEBENBURG OTHFRESEN, GM",
    "PRCP": "86.3",
    "TAVG": "4.73"
  },
  {
    "STATION": "USW00094960",
    "DATE": "2018-12",
    "LATITUDE": "45.0622",
    "LONGITUDE": "-93.351",
    "NAME": "MINNEAPOLIS CRYSTAL AIRPORT, MN US",
    "PRCP": "19.4",
    "TAVG": "-4.05"
  },
  {
    "STATION": "USC00210190",
    "DATE": "2018-12",
    "LATITUDE": "45.2534",
    "LONGITUDE": "-93.2927",
    "NAME": "ANDOVER 1 N, MN US",
    "PRCP": "26.2",
    "TAVG": "-4.72"
  },
  {
    "STATION": "USW00014806",
    "DATE": "2018-12",
    "LATITUDE": "40.3131",
    "LONGITUDE": "-88.1596",
    "NAME": "RANTOUL, IL US",
    "PRCP": "43.5",
    "TAVG": "0.72"
  },
  {
    "STATION": "USC00216287",
    "DATE": "2018-12",
    "LATITUDE": "44.0976",
    "LONGITUDE": "-93.2318",
    "NAME": "OWATONNA, MN US",
    "PRCP": "56.4",
    "TAVG": "-4.33"
  },
  {
    "STATION": "USC00473650",
    "DATE": "2018-12",
    "LATITUDE": "43.6341",
    "LONGITUDE": "-90.3792",
    "NAME": "HILLSBORO 2 SW, WI US",
    "PRCP": "49.4",
    "TAVG": "-4.71"
  },
  {
    "STATION": "USS0010E03S",
    "DATE": "2018-12",
    "LATITUDE": "44.72",
    "LONGITUDE": "-110.51",
    "NAME": "CANYON, WY US",
    "PRCP": "48.2",
    "TAVG": "-9.71"
  },
  {
    "STATION": "USC00206080",
    "DATE": "2018-12",
    "LATITUDE": "43.5816",
    "LONGITUDE": "-84.5888",
    "NAME": "OIL CITY 2 S, MI US",
    "PRCP": "43.4",
    "TAVG": "-1.52"
  },
  {
    "STATION": "USC00508584",
    "DATE": "2018-12",
    "LATITUDE": "58.1421",
    "LONGITUDE": "-133.7385",
    "NAME": "SNETTISHAM POWER PLANT, AK US",
    "PRCP": "350.1",
    "TAVG": "-1.07"
  },
  {
    "STATION": "USC00425402",
    "DATE": "2018-12",
    "LATITUDE": "39.25826",
    "LONGITUDE": "-111.6307",
    "NAME": "MANTI, UT US",
    "PRCP": "24.5",
    "TAVG": "-3.16"
  },
  {
    "STATION": "GMM00010870",
    "DATE": "2018-12",
    "LATITUDE": "48.3667",
    "LONGITUDE": "11.8",
    "NAME": "SCHWAIGERMOOS, GM",
    "PRCP": "71.7",
    "TAVG": "2.78"
  },
  {
    "STATION": "NOE00133878",
    "DATE": "2018-12",
    "LATITUDE": "68.155",
    "LONGITUDE": "13.615",
    "NAME": "LEKNES LUFTHAVN, NO",
    "PRCP": "153.1",
    "TAVG": "1.78"
  },
  {
    "STATION": "CA004015322",
    "DATE": "2018-12",
    "LATITUDE": "50.3333",
    "LONGITUDE": "-105.5333",
    "NAME": "MOOSE JAW CS, SK CA",
    "PRCP": "9.9",
    "TAVG": "-7.21"
  },
  {
    "STATION": "USW00023066",
    "DATE": "2018-12",
    "LATITUDE": "39.1342",
    "LONGITUDE": "-108.54",
    "NAME": "GRAND JUNCTION WALKER FIELD, CO US",
    "PRCP": "23.8",
    "TAVG": "-1.19"
  },
  {
    "STATION": "USC00053005",
    "DATE": "2018-12",
    "LATITUDE": "40.5763",
    "LONGITUDE": "-105.0857",
    "NAME": "FORT COLLINS, CO US",
    "PRCP": "0.8",
    "TAVG": "-0.11"
  },
  {
    "STATION": "USC00258117",
    "DATE": "2018-12",
    "LATITUDE": "42.0413",
    "LONGITUDE": "-97.1747",
    "NAME": "STANTON 7 NE, NE US",
    "PRCP": "61.5",
    "TAVG": "-3.07"
  },
  {
    "STATION": "USC00026471",
    "DATE": "2018-12",
    "LATITUDE": "36.1066",
    "LONGITUDE": "-112.0947",
    "NAME": "PHANTOM RANCH, AZ US",
    "PRCP": "11.1",
    "TAVG": "8.10"
  },
  {
    "STATION": "USC00349768",
    "DATE": "2018-12",
    "LATITUDE": "36.42306",
    "LONGITUDE": "-99.41667",
    "NAME": "WOODWARD 2 WSW MESONET, OK US",
    "PRCP": "29.0",
    "TAVG": "3.68"
  },
  {
    "STATION": "GME00132262",
    "DATE": "2018-12",
    "LATITUDE": "51.1056",
    "LONGITUDE": "11.7125",
    "NAME": "KREIPITZSCH BEI BAD KOSEN, GM",
    "PRCP": "47.8",
    "TAVG": "4.04"
  },
  {
    "STATION": "USS0007M16S",
    "DATE": "2018-12",
    "LATITUDE": "37.72",
    "LONGITUDE": "-107.26",
    "NAME": "UPPER RIO GRANDE, CO US",
    "PRCP": "48.2",
    "TAVG": "-6.44"
  },
  {
    "STATION": "GME00124366",
    "DATE": "2018-12",
    "LATITUDE": "50.5028",
    "LONGITUDE": "6.5267",
    "NAME": "KALL SISTIG, GM",
    "PRCP": "115.4",
    "TAVG": "3.53"
  },
  {
    "STATION": "USC00242629",
    "DATE": "2018-12",
    "LATITUDE": "48.4472",
    "LONGITUDE": "-113.2236",
    "NAME": "EAST GLACIER, MT US",
    "PRCP": "",
    "TAVG": "-3.47"
  },
  {
    "STATION": "USC00095863",
    "DATE": "2018-12",
    "LATITUDE": "32.8753",
    "LONGITUDE": "-82.2156",
    "NAME": "MIDVILLE EXPERIMENTAL STATION, GA US",
    "PRCP": "137.2",
    "TAVG": "9.90"
  },
  {
    "STATION": "ASN00053115",
    "DATE": "2018-12",
    "LATITUDE": "-29.4914",
    "LONGITUDE": "149.8458",
    "NAME": "MOREE AERO, AS",
    "PRCP": "25.2",
    "TAVG": "27.70"
  },
  {
    "STATION": "USW00024090",
    "DATE": "2018-12",
    "LATITUDE": "44.0433",
    "LONGITUDE": "-103.0536",
    "NAME": "RAPID CITY REGIONAL AIRPORT, SD US",
    "PRCP": "29.0",
    "TAVG": "-2.73"
  },
  {
    "STATION": "USC00385362",
    "DATE": "2018-12",
    "LATITUDE": "34.24926",
    "LONGITUDE": "-80.66964",
    "NAME": "LUGOFF 2 NE, SC US",
    "PRCP": "240.7",
    "TAVG": "8.06"
  },
  {
    "STATION": "USC00447278",
    "DATE": "2018-12",
    "LATITUDE": "37.3622",
    "LONGITUDE": "-79.95871",
    "NAME": "ROANOKE 8 N, VA US",
    "PRCP": "157.6",
    "TAVG": "3.88"
  },
  {
    "STATION": "USC00407884",
    "DATE": "2018-12",
    "LATITUDE": "36.4161",
    "LONGITUDE": "-82.9838",
    "NAME": "ROGERSVILLE 1 NE, TN US",
    "PRCP": "170.7",
    "TAVG": "3.93"
  },
  {
    "STATION": "USC00203661",
    "DATE": "2018-12",
    "LATITUDE": "42.64208",
    "LONGITUDE": "-85.28819",
    "NAME": "HASTINGS, MI US",
    "PRCP": "46.5",
    "TAVG": "-0.56"
  },
  {
    "STATION": "USC00315771",
    "DATE": "2018-12",
    "LATITUDE": "34.9797",
    "LONGITUDE": "-80.5233",
    "NAME": "MONROE 2 SE, NC US",
    "PRCP": "219.6",
    "TAVG": "7.59"
  },
  {
    "STATION": "USS0009S18S",
    "DATE": "2018-12",
    "LATITUDE": "33.76",
    "LONGITUDE": "-109.48",
    "NAME": "WILDCAT, AZ US",
    "PRCP": "43.1",
    "TAVG": "1.07"
  },
  {
    "STATION": "ASN00055202",
    "DATE": "2018-12",
    "LATITUDE": "-30.9537",
    "LONGITUDE": "150.2494",
    "NAME": "GUNNEDAH AIRPORT AWS, AS",
    "PRCP": "43.8",
    "TAVG": "25.37"
  },
  {
    "STATION": "NO000050540",
    "DATE": "2018-12",
    "LATITUDE": "60.3831",
    "LONGITUDE": "5.3331",
    "NAME": "BERGEN FLORIDA, NO",
    "PRCP": "135.7",
    "TAVG": "4.36"
  },
  {
    "STATION": "USC00485105",
    "DATE": "2018-12",
    "LATITUDE": "41.81814",
    "LONGITUDE": "-110.53328",
    "NAME": "KEMMERER 2 N, WY US",
    "PRCP": "15.1",
    "TAVG": "-9.10"
  },
  {
    "STATION": "CA001020590",
    "DATE": "2018-12",
    "LATITUDE": "49.35",
    "LONGITUDE": "-124.1667",
    "NAME": "BALLENAS ISLAND, BC CA",
    "PRCP": "134.4",
    "TAVG": "6.66"
  },
  {
    "STATION": "GME00128206",
    "DATE": "2018-12",
    "LATITUDE": "50.3531",
    "LONGITUDE": "10.0042",
    "NAME": "SANDBERG, GM",
    "PRCP": "154.0",
    "TAVG": "2.30"
  },
  {
    "STATION": "USC00113384",
    "DATE": "2018-12",
    "LATITUDE": "41.4511",
    "LONGITUDE": "-90.1487",
    "NAME": "GENESEO, IL US",
    "PRCP": "66.6",
    "TAVG": "-0.38"
  },
  {
    "STATION": "GME00121222",
    "DATE": "2018-12",
    "LATITUDE": "49.9475",
    "LONGITUDE": "7.2644",
    "NAME": "HAHN, GM",
    "PRCP": "135.0",
    "TAVG": "2.90"
  },
  {
    "STATION": "USC00352374",
    "DATE": "2018-12",
    "LATITUDE": "43.7822",
    "LONGITUDE": "-122.963",
    "NAME": "DORENA, OR US",
    "PRCP": "",
    "TAVG": "5.19"
  },
  {
    "STATION": "USC00058839",
    "DATE": "2018-12",
    "LATITUDE": "40.4256",
    "LONGITUDE": "-105.2103",
    "NAME": "WATERDALE, CO US",
    "PRCP": "2.9",
    "TAVG": "-0.91"
  },
  {
    "STATION": "ASN00090176",
    "DATE": "2018-12",
    "LATITUDE": "-38.0737",
    "LONGITUDE": "142.7744",
    "NAME": "MORTLAKE RACECOURSE, AS",
    "PRCP": "39.0",
    "TAVG": "19.03"
  },
  {
    "STATION": "NOE00134118",
    "DATE": "2018-12",
    "LATITUDE": "61.6514",
    "LONGITUDE": "10.1083",
    "NAME": "VENABU, NO",
    "PRCP": "61.1",
    "TAVG": "-7.07"
  },
  {
    "STATION": "USC00214453",
    "DATE": "2018-12",
    "LATITUDE": "43.7022",
    "LONGITUDE": "-95.1519",
    "NAME": "LAKEFIELD, MN US",
    "PRCP": "59.4",
    "TAVG": "-5.72"
  },
  {
    "STATION": "GME00132538",
    "DATE": "2018-12",
    "LATITUDE": "50.7925",
    "LONGITUDE": "12.8733",
    "NAME": "CHEMNITZ, GM",
    "PRCP": "104.9",
    "TAVG": "3.02"
  },
  {
    "STATION": "USC00400669",
    "DATE": "2018-12",
    "LATITUDE": "36.4583",
    "LONGITUDE": "-86.324",
    "NAME": "BETHPAGE 1 S, TN US",
    "PRCP": "135.8",
    "TAVG": "5.07"
  },
  {
    "STATION": "CA004028060",
    "DATE": "2018-12",
    "LATITUDE": "50.2667",
    "LONGITUDE": "-107.7333",
    "NAME": "SWIFT CURRENT CDA, SK CA",
    "PRCP": "9.5",
    "TAVG": "-6.17"
  },
  {
    "STATION": "USC00445453",
    "DATE": "2018-12",
    "LATITUDE": "36.6667",
    "LONGITUDE": "-80.4481",
    "NAME": "MEADOWS OF DAN 5 SW, VA US",
    "PRCP": "220.8",
    "TAVG": "4.69"
  },
  {
    "STATION": "USC00231189",
    "DATE": "2018-12",
    "LATITUDE": "38.6277",
    "LONGITUDE": "-92.5544",
    "NAME": "CALIFORNIA, MO US",
    "PRCP": "113.3",
    "TAVG": "2.28"
  },
  {
    "STATION": "CA003015346",
    "DATE": "2018-12",
    "LATITUDE": "54.0",
    "LONGITUDE": "-112.8833",
    "NAME": "RADWAY AGCM, AB CA",
    "PRCP": "",
    "TAVG": "-10.27"
  },
  {
    "STATION": "GMW00034068",
    "DATE": "2018-12",
    "LATITUDE": "49.56667",
    "LONGITUDE": "8.46667",
    "NAME": "COLEMAN, GM",
    "PRCP": "91.6",
    "TAVG": "5.16"
  },
  {
    "STATION": "USS0007H03S",
    "DATE": "2018-12",
    "LATITUDE": "41.11",
    "LONGITUDE": "-107.17",
    "NAME": "SANDSTONE RANGER STATION, WY US",
    "PRCP": "35.1",
    "TAVG": "-5.90"
  },
  {
    "STATION": "USW00014609",
    "DATE": "2018-12",
    "LATITUDE": "46.1185",
    "LONGITUDE": "-67.7928",
    "NAME": "HOULTON AIRPORT, ME US",
    "PRCP": "63.2",
    "TAVG": "-8.13"
  },
  {
    "STATION": "USC00341283",
    "DATE": "2018-12",
    "LATITUDE": "34.84944",
    "LONGITUDE": "-97.00306",
    "NAME": "BYARS 3 ESE MESONET, OK US",
    "PRCP": "105.8",
    "TAVG": "5.94"
  },
  {
    "STATION": "USC00233601",
    "DATE": "2018-12",
    "LATITUDE": "39.7232",
    "LONGITUDE": "-91.3748",
    "NAME": "HANNIBAL WATER WORKS, MO US",
    "PRCP": "70.9",
    "TAVG": "1.04"
  },
  {
    "STATION": "USC00051996",
    "DATE": "2018-12",
    "LATITUDE": "40.86",
    "LONGITUDE": "-102.803",
    "NAME": "CROOK, CO US",
    "PRCP": "4.3",
    "TAVG": "-0.62"
  },
  {
    "STATION": "USC00238754",
    "DATE": "2018-12",
    "LATITUDE": "36.85814",
    "LONGITUDE": "-92.58758",
    "NAME": "WASOLA 5 N, MO US",
    "PRCP": "157.9",
    "TAVG": "3.54"
  },
  {
    "STATION": "USW00093821",
    "DATE": "2018-12",
    "LATITUDE": "38.1811",
    "LONGITUDE": "-85.7391",
    "NAME": "LOUISVILLE INTERNATIONAL AIRPORT, KY US",
    "PRCP": "149.9",
    "TAVG": "6.10"
  },
  {
    "STATION": "USC00241297",
    "DATE": "2018-12",
    "LATITUDE": "45.5397",
    "LONGITUDE": "-106.9597",
    "NAME": "BUSBY, MT US",
    "PRCP": "14.8",
    "TAVG": "-2.30"
  },
  {
    "STATION": "CA002203058",
    "DATE": "2018-12",
    "LATITUDE": "69.35",
    "LONGITUDE": "-124.0833",
    "NAME": "PAULATUK, NT CA",
    "PRCP": "9.8",
    "TAVG": "-15.80"
  },
  {
    "STATION": "USC00404590",
    "DATE": "2018-12",
    "LATITUDE": "36.4259",
    "LONGITUDE": "-84.942",
    "NAME": "JAMESTOWN, TN US",
    "PRCP": "236.4",
    "TAVG": "4.32"
  },
  {
    "STATION": "USS0015B02S",
    "DATE": "2018-12",
    "LATITUDE": "47.46",
    "LONGITUDE": "-115.71",
    "NAME": "LOOKOUT, ID US",
    "PRCP": "167.6",
    "TAVG": "-3.76"
  },
  {
    "STATION": "GME00122878",
    "DATE": "2018-12",
    "LATITUDE": "53.8431",
    "LONGITUDE": "13.6856",
    "NAME": "ANKLAM, GM",
    "PRCP": "61.6",
    "TAVG": "4.21"
  },
  {
    "STATION": "USW00024133",
    "DATE": "2018-12",
    "LATITUDE": "42.5416",
    "LONGITUDE": "-113.7661",
    "NAME": "BURLEY MUNICIPAL AIRPORT, ID US",
    "PRCP": "15.6",
    "TAVG": "-1.54"
  },
  {
    "STATION": "CA001145297",
    "DATE": "2018-12",
    "LATITUDE": "50.2667",
    "LONGITUDE": "-117.8167",
    "NAME": "NAKUSP CS, BC CA",
    "PRCP": "79.4",
    "TAVG": "0.27"
  },
  {
    "STATION": "USW00024127",
    "DATE": "2018-12",
    "LATITUDE": "40.7781",
    "LONGITUDE": "-111.9694",
    "NAME": "SALT LAKE CITY INTERNATIONAL AIRPORT, UT US",
    "PRCP": "32.5",
    "TAVG": "-0.10"
  },
  {
    "STATION": "USC00031910",
    "DATE": "2018-12",
    "LATITUDE": "34.253",
    "LONGITUDE": "-93.1486",
    "NAME": "DEGRAY LAKE STATE PARK, AR US",
    "PRCP": "219.4",
    "TAVG": "6.68"
  },
  {
    "STATION": "USW00094182",
    "DATE": "2018-12",
    "LATITUDE": "44.88889",
    "LONGITUDE": "-116.10167",
    "NAME": "MCCALL AIRPORT, ID US",
    "PRCP": "55.9",
    "TAVG": "-6.42"
  },
  {
    "STATION": "CA002300551",
    "DATE": "2018-12",
    "LATITUDE": "66.8333",
    "LONGITUDE": "-108.0167",
    "NAME": "BATHURST INLET, NU CA",
    "PRCP": "7.1",
    "TAVG": "-20.38"
  },
  {
    "STATION": "SPE00119756",
    "DATE": "2018-12",
    "LATITUDE": "39.0067",
    "LONGITUDE": "-1.8606",
    "NAME": "ALBACETE OBS., SP",
    "PRCP": "8.0",
    "TAVG": "7.96"
  },
  {
    "STATION": "USC00238740",
    "DATE": "2018-12",
    "LATITUDE": "36.5753",
    "LONGITUDE": "-94.0537",
    "NAME": "WASHBURN 5 W, MO US",
    "PRCP": "143.9",
    "TAVG": "3.90"
  },
  {
    "STATION": "SWE00139684",
    "DATE": "2018-12",
    "LATITUDE": "61.83",
    "LONGITUDE": "16.54",
    "NAME": "DELSBO A, SW",
    "PRCP": "55.9",
    "TAVG": "-3.73"
  },
  {
    "STATION": "USS0011F11S",
    "DATE": "2018-12",
    "LATITUDE": "43.21",
    "LONGITUDE": "-111.69",
    "NAME": "SHEEP MOUNTAIN, ID US",
    "PRCP": "50.5",
    "TAVG": "-5.13"
  },
  {
    "STATION": "ASN00027045",
    "DATE": "2018-12",
    "LATITUDE": "-12.6778",
    "LONGITUDE": "141.9208",
    "NAME": "WEIPA AERO, AS",
    "PRCP": "299.8",
    "TAVG": "29.36"
  },
  {
    "STATION": "USC00086764",
    "DATE": "2018-12",
    "LATITUDE": "26.8261",
    "LONGITUDE": "-80.1488",
    "NAME": "PALM BEACH GARDENS, FL US",
    "PRCP": "24.2",
    "TAVG": "20.06"
  },
  {
    "STATION": "USC00236745",
    "DATE": "2018-12",
    "LATITUDE": "38.8099",
    "LONGITUDE": "-94.2647",
    "NAME": "PLEASANT HILL WEATHER FORECAST OFFICE, MO US",
    "PRCP": "92.0",
    "TAVG": "2.13"
  },
  {
    "STATION": "USS0013C39S",
    "DATE": "2018-12",
    "LATITUDE": "46.18",
    "LONGITUDE": "-113.85",
    "NAME": "DALY CREEK, MT US",
    "PRCP": "53.3",
    "TAVG": "-5.47"
  },
  {
    "STATION": "USS0011C04S",
    "DATE": "2018-12",
    "LATITUDE": "46.35",
    "LONGITUDE": "-111.85",
    "NAME": "TIZER BASIN, MT US",
    "PRCP": "32.9",
    "TAVG": "-5.60"
  },
  {
    "STATION": "USW00094814",
    "DATE": "2018-12",
    "LATITUDE": "44.3591",
    "LONGITUDE": "-84.6738",
    "NAME": "HOUGHTON LAKE ROSCOMMON CO AIRPORT, MI US",
    "PRCP": "55.2",
    "TAVG": "-2.38"
  },
  {
    "STATION": "USC00463251",
    "DATE": "2018-12",
    "LATITUDE": "38.2869",
    "LONGITUDE": "-79.8181",
    "NAME": "FROST 3 NE, WV US",
    "PRCP": "105.7",
    "TAVG": "0.43"
  },
  {
    "STATION": "USS0021B48S",
    "DATE": "2018-12",
    "LATITUDE": "47.78",
    "LONGITUDE": "-121.7",
    "NAME": "ALPINE MEADOWS, WA US",
    "PRCP": "515.5",
    "TAVG": "0.72"
  },
  {
    "STATION": "USW00014972",
    "DATE": "2018-12",
    "LATITUDE": "43.16444",
    "LONGITUDE": "-95.20167",
    "NAME": "SPENCER MUNICIPAL AIRPORT, IA US",
    "PRCP": "18.8",
    "TAVG": "-4.01"
  },
  {
    "STATION": "CA007022800",
    "DATE": "2018-12",
    "LATITUDE": "45.3833",
    "LONGITUDE": "-72.7167",
    "NAME": "GRANBY, QC CA",
    "PRCP": "118.0",
    "TAVG": "-5.26"
  },
  {
    "STATION": "IN001170800",
    "DATE": "2018-12",
    "LATITUDE": "18.667",
    "LONGITUDE": "78.1",
    "NAME": "NIZAMABAD, IN",
    "PRCP": "",
    "TAVG": "23.13"
  },
  {
    "STATION": "USW00027406",
    "DATE": "2018-12",
    "LATITUDE": "70.1917",
    "LONGITUDE": "-148.4772",
    "NAME": "DEADHORSE AIRPORT, AK US",
    "PRCP": "",
    "TAVG": "-21.43"
  },
  {
    "STATION": "USC00414967",
    "DATE": "2018-12",
    "LATITUDE": "33.06417",
    "LONGITUDE": "-101.04889",
    "NAME": "LAKE ALAN HENRY, TX US",
    "PRCP": "18.3",
    "TAVG": "6.45"
  },
  {
    "STATION": "USC00058756",
    "DATE": "2018-12",
    "LATITUDE": "40.7442",
    "LONGITUDE": "-106.2792",
    "NAME": "WALDEN, CO US",
    "PRCP": "2.1",
    "TAVG": "-9.54"
  },
  {
    "STATION": "NOE00110119",
    "DATE": "2018-12",
    "LATITUDE": "60.7",
    "LONGITUDE": "10.8667",
    "NAME": "OSTRE TOTEN APELSVOLL, NO",
    "PRCP": "56.4",
    "TAVG": "-3.55"
  },
  {
    "STATION": "USW00093809",
    "DATE": "2018-12",
    "LATITUDE": "37.0422",
    "LONGITUDE": "-89.1855",
    "NAME": "CAIRO 3 N, IL US",
    "PRCP": "",
    "TAVG": "5.51"
  },
  {
    "STATION": "USS0010E15S",
    "DATE": "2018-12",
    "LATITUDE": "44.13",
    "LONGITUDE": "-110.83",
    "NAME": "GRASSY LAKE, WY US",
    "PRCP": "109.2",
    "TAVG": "-9.30"
  },
  {
    "STATION": "USS0005N14S",
    "DATE": "2018-12",
    "LATITUDE": "36.58",
    "LONGITUDE": "-105.46",
    "NAME": "TAOS POWDERHORN, NM US",
    "PRCP": "76.0",
    "TAVG": "-5.69"
  },
  {
    "STATION": "ASN00079105",
    "DATE": "2018-12",
    "LATITUDE": "-37.068",
    "LONGITUDE": "142.7412",
    "NAME": "STAWELL AERODROME, AS",
    "PRCP": "66.0",
    "TAVG": "20.93"
  },
  {
    "STATION": "BLM00085268",
    "DATE": "2018-12",
    "LATITUDE": "-18.317",
    "LONGITUDE": "-59.75",
    "NAME": "ROBORE CIV MIL, BL",
    "PRCP": "",
    "TAVG": "27.30"
  },
  {
    "STATION": "USC00203932",
    "DATE": "2018-12",
    "LATITUDE": "44.3119",
    "LONGITUDE": "-84.8922",
    "NAME": "HOUGHTON LAKE 6 WSW, MI US",
    "PRCP": "37.7",
    "TAVG": "-1.88"
  },
  {
    "STATION": "USS0005P04S",
    "DATE": "2018-12",
    "LATITUDE": "35.7",
    "LONGITUDE": "-105.81",
    "NAME": "ELK CABIN, NM US",
    "PRCP": "40.7",
    "TAVG": "-1.04"
  },
  {
    "STATION": "USC00057317",
    "DATE": "2018-12",
    "LATITUDE": "37.9137",
    "LONGITUDE": "-104.9484",
    "NAME": "RYE 1 SW, CO US",
    "PRCP": "37.9",
    "TAVG": "-0.12"
  },
  {
    "STATION": "CA003033550",
    "DATE": "2018-12",
    "LATITUDE": "49.9833",
    "LONGITUDE": "-110.2667",
    "NAME": "IRVINE AGCM, AB CA",
    "PRCP": "9.4",
    "TAVG": "-3.14"
  },
  {
    "STATION": "CA007027039",
    "DATE": "2018-12",
    "LATITUDE": "45.1667",
    "LONGITUDE": "-73.6833",
    "NAME": "STE CLOTHILDE, QC CA",
    "PRCP": "186.2",
    "TAVG": "-5.25"
  },
  {
    "STATION": "USC00301664",
    "DATE": "2018-12",
    "LATITUDE": "44.5842",
    "LONGITUDE": "-74.9573",
    "NAME": "COLTON 2 N, NY US",
    "PRCP": "53.8",
    "TAVG": "-4.54"
  },
  {
    "STATION": "USC00505881",
    "DATE": "2018-12",
    "LATITUDE": "63.9033",
    "LONGITUDE": "-152.2816",
    "NAME": "MINCHUMINA, AK US",
    "PRCP": "",
    "TAVG": "-16.68"
  },
  {
    "STATION": "USC00245754",
    "DATE": "2018-12",
    "LATITUDE": "46.2858",
    "LONGITUDE": "-105.2919",
    "NAME": "MIZPAH 4 NNW, MT US",
    "PRCP": "17.9",
    "TAVG": "-4.57"
  },
  {
    "STATION": "USC00341240",
    "DATE": "2018-12",
    "LATITUDE": "36.8313",
    "LONGITUDE": "-99.641",
    "NAME": "BUFFALO 1 SW MESONET, OK US",
    "PRCP": "18.9",
    "TAVG": "2.98"
  },
  {
    "STATION": "USW00014755",
    "DATE": "2018-12",
    "LATITUDE": "44.27018",
    "LONGITUDE": "-71.30336",
    "NAME": "MOUNT WASHINGTON, NH US",
    "PRCP": "175.2",
    "TAVG": "-11.49"
  },
  {
    "STATION": "SWE00140390",
    "DATE": "2018-12",
    "LATITUDE": "64.73",
    "LONGITUDE": "13.96",
    "NAME": "JORMLIEN, SW",
    "PRCP": "105.7",
    "TAVG": "-4.20"
  },
  {
    "STATION": "USC00301102",
    "DATE": "2018-12",
    "LATITUDE": "41.8275",
    "LONGITUDE": "-74.9506",
    "NAME": "CALLICOON CENTER, NY US",
    "PRCP": "97.0",
    "TAVG": "-2.02"
  },
  {
    "STATION": "USW00013984",
    "DATE": "2018-12",
    "LATITUDE": "39.5514",
    "LONGITUDE": "-97.6508",
    "NAME": "CONCORDIA ASOS, KS US",
    "PRCP": "66.9",
    "TAVG": "0.42"
  },
  {
    "STATION": "USC00272846",
    "DATE": "2018-12",
    "LATITUDE": "44.7925",
    "LONGITUDE": "-71.1634",
    "NAME": "ERROL AIRPORT, NH US",
    "PRCP": "95.1",
    "TAVG": "-8.26"
  },
  {
    "STATION": "USC00315177",
    "DATE": "2018-12",
    "LATITUDE": "34.6269",
    "LONGITUDE": "-79.025",
    "NAME": "LUMBERTON, NC US",
    "PRCP": "152.2",
    "TAVG": "9.73"
  },
  {
    "STATION": "USC00047851",
    "DATE": "2018-12",
    "LATITUDE": "35.3056",
    "LONGITUDE": "-120.6619",
    "NAME": "SAN LUIS OBISPO POLY, CA US",
    "PRCP": "30.6",
    "TAVG": "13.50"
  },
  {
    "STATION": "USC00046597",
    "DATE": "2018-12",
    "LATITUDE": "38.7583",
    "LONGITUDE": "-120.503",
    "NAME": "PACIFIC HOUSE, CA US",
    "PRCP": "123.6",
    "TAVG": "2.82"
  },
  {
    "STATION": "CA004020560",
    "DATE": "2018-12",
    "LATITUDE": "50.8333",
    "LONGITUDE": "-107.3167",
    "NAME": "BEECHY, SK CA",
    "PRCP": "14.2",
    "TAVG": "-6.70"
  },
  {
    "STATION": "USC00134101",
    "DATE": "2018-12",
    "LATITUDE": "41.6093",
    "LONGITUDE": "-91.5051",
    "NAME": "IOWA CITY, IA US",
    "PRCP": "43.3",
    "TAVG": "-1.70"
  },
  {
    "STATION": "CA007060400",
    "DATE": "2018-12",
    "LATITUDE": "48.3333",
    "LONGITUDE": "-71.0",
    "NAME": "BAGOTVILLE A, QC CA",
    "PRCP": "52.3",
    "TAVG": "-10.81"
  },
  {
    "STATION": "USC00419270",
    "DATE": "2018-12",
    "LATITUDE": "30.5908",
    "LONGITUDE": "-104.4915",
    "NAME": "VALENTINE, TX US",
    "PRCP": "17.4",
    "TAVG": "7.68"
  },
  {
    "STATION": "USW00013748",
    "DATE": "2018-12",
    "LATITUDE": "34.2675",
    "LONGITUDE": "-77.8997",
    "NAME": "WILMINGTON INTERNATIONAL AIRPORT, NC US",
    "PRCP": "179.9",
    "TAVG": "10.56"
  },
  {
    "STATION": "CQC00914855",
    "DATE": "2018-12",
    "LATITUDE": "15.11667",
    "LONGITUDE": "145.71667",
    "NAME": "SAIPAN INTERNATIONAL AIRPORT, MP CQ",
    "PRCP": "55.8",
    "TAVG": "28.06"
  },
  {
    "STATION": "MUM00041252",
    "DATE": "2018-12",
    "LATITUDE": "23.233",
    "LONGITUDE": "56.433",
    "NAME": "IBRI, MU",
    "PRCP": "",
    "TAVG": "21.72"
  },
  {
    "STATION": "USS0003E05S",
    "DATE": "2018-12",
    "LATITUDE": "44.21",
    "LONGITUDE": "-103.79",
    "NAME": "NORTH RAPID CREEK, SD US",
    "PRCP": "30.4",
    "TAVG": "-3.35"
  },
  {
    "STATION": "CA001105658",
    "DATE": "2018-12",
    "LATITUDE": "49.3667",
    "LONGITUDE": "-123.0833",
    "NAME": "N VANC GROUSE MOUNTAIN RESORT, BC CA",
    "PRCP": "334.0",
    "TAVG": "-0.58"
  },
  {
    "STATION": "USS0016G07S",
    "DATE": "2018-12",
    "LATITUDE": "42.6",
    "LONGITUDE": "-116.56",
    "NAME": "MUD FLAT, ID US",
    "PRCP": "40.3",
    "TAVG": "-3.81"
  },
  {
    "STATION": "USS0006N04S",
    "DATE": "2018-12",
    "LATITUDE": "36.51",
    "LONGITUDE": "-106.32",
    "NAME": "BATEMAN, NM US",
    "PRCP": "60.9",
    "TAVG": "-3.45"
  },
  {
    "STATION": "USS0011E38S",
    "DATE": "2018-12",
    "LATITUDE": "44.95",
    "LONGITUDE": "-111.36",
    "NAME": "BEAVER CREEK, MT US",
    "PRCP": "53.0",
    "TAVG": "-9.76"
  },
  {
    "STATION": "CA008103050",
    "DATE": "2018-12",
    "LATITUDE": "48.0167",
    "LONGITUDE": "-64.5",
    "NAME": "MISCOU ISLAND AUT, NB CA",
    "PRCP": "69.3",
    "TAVG": "-5.31"
  },
  {
    "STATION": "CA001021261",
    "DATE": "2018-12",
    "LATITUDE": "49.95",
    "LONGITUDE": "-125.2667",
    "NAME": "CAMPBELL RIVER A, BC CA",
    "PRCP": "357.1",
    "TAVG": "2.70"
  },
  {
    "STATION": "CA001166658",
    "DATE": "2018-12",
    "LATITUDE": "50.9333",
    "LONGITUDE": "-120.8",
    "NAME": "RED LAKE, BC CA",
    "PRCP": "45.8",
    "TAVG": "-3.09"
  },
  {
    "STATION": "SPE00156531",
    "DATE": "2018-12",
    "LATITUDE": "42.1392",
    "LONGITUDE": "1.0389",
    "NAME": "SANT ROMA DABELLA, SP",
    "PRCP": "7.1",
    "TAVG": "4.96"
  },
  {
    "STATION": "GME00130918",
    "DATE": "2018-12",
    "LATITUDE": "47.6758",
    "LONGITUDE": "12.4708",
    "NAME": "REIT IM WINKL, GM",
    "PRCP": "235.7",
    "TAVG": "0.07"
  },
  {
    "STATION": "USW00004787",
    "DATE": "2018-12",
    "LATITUDE": "41.17947",
    "LONGITUDE": "-78.89326",
    "NAME": "DUBOIS JEFFERSON CO AIRPORT, PA US",
    "PRCP": "95.9",
    "TAVG": "0.30"
  },
  {
    "STATION": "SWE00138798",
    "DATE": "2018-12",
    "LATITUDE": "59.19",
    "LONGITUDE": "17.63",
    "NAME": "SODERTALJE, SW",
    "PRCP": "51.9",
    "TAVG": "-0.04"
  },
  {
    "STATION": "SPE00156243",
    "DATE": "2018-12",
    "LATITUDE": "40.9514",
    "LONGITUDE": "0.3056",
    "NAME": "HORTA DE SANT JOAN, SP",
    "PRCP": "12.4",
    "TAVG": "8.82"
  },
  {
    "STATION": "USS0010D07S",
    "DATE": "2018-12",
    "LATITUDE": "45.01",
    "LONGITUDE": "-110.01",
    "NAME": "NORTHEAST ENTRANCE, MT US",
    "PRCP": "40.5",
    "TAVG": "-7.40"
  },
  {
    "STATION": "CA001023462",
    "DATE": "2018-12",
    "LATITUDE": "50.1",
    "LONGITUDE": "-125.2",
    "NAME": "HERIOT BAY SE, BC CA",
    "PRCP": "307.0",
    "TAVG": "4.81"
  },
  {
    "STATION": "GME00123970",
    "DATE": "2018-12",
    "LATITUDE": "47.8831",
    "LONGITUDE": "11.6975",
    "NAME": "HOLZKIRCHEN, GM",
    "PRCP": "146.2",
    "TAVG": "2.23"
  },
  {
    "STATION": "USS0015F05S",
    "DATE": "2018-12",
    "LATITUDE": "43.63",
    "LONGITUDE": "-115.44",
    "NAME": "TRINITY MOUNTAIN, ID US",
    "PRCP": "119.3",
    "TAVG": "-6.46"
  },
  {
    "STATION": "ASN00067105",
    "DATE": "2018-12",
    "LATITUDE": "-33.6004",
    "LONGITUDE": "150.7761",
    "NAME": "RICHMOND RAAF, AS",
    "PRCP": "101.2",
    "TAVG": "24.05"
  },
  {
    "STATION": "USS0015C10S",
    "DATE": "2018-12",
    "LATITUDE": "46.98",
    "LONGITUDE": "-115.03",
    "NAME": "HOODOO BASIN, MT US",
    "PRCP": "192.9",
    "TAVG": "-4.66"
  },
  {
    "STATION": "CA003030529",
    "DATE": "2018-12",
    "LATITUDE": "50.0333",
    "LONGITUDE": "-113.2167",
    "NAME": "BARONS AGCM, AB CA",
    "PRCP": "8.4",
    "TAVG": "-3.82"
  },
  {
    "STATION": "EI000003980",
    "DATE": "2018-12",
    "LATITUDE": "55.3717",
    "LONGITUDE": "-7.34",
    "NAME": "MALIN HEAD, EI",
    "PRCP": "98.4",
    "TAVG": "7.53"
  },
  {
    "STATION": "CA003063165",
    "DATE": "2018-12",
    "LATITUDE": "55.4",
    "LONGITUDE": "-116.4833",
    "NAME": "HIGH PRAIRIE AGDM, AB CA",
    "PRCP": "",
    "TAVG": "-9.36"
  },
  {
    "STATION": "USS0014E01S",
    "DATE": "2018-12",
    "LATITUDE": "44.47",
    "LONGITUDE": "-114.49",
    "NAME": "MILL CREEK SUMMIT, ID US",
    "PRCP": "55.5",
    "TAVG": "-7.54"
  },
  {
    "STATION": "FIE00143066",
    "DATE": "2018-12",
    "LATITUDE": "61.1994",
    "LONGITUDE": "26.0528",
    "NAME": "HEINOLA ASEMANTAUS, FI",
    "PRCP": "31.1",
    "TAVG": "-3.33"
  },
  {
    "STATION": "CA004010879",
    "DATE": "2018-12",
    "LATITUDE": "50.3667",
    "LONGITUDE": "-102.5667",
    "NAME": "BROADVIEW, SK CA",
    "PRCP": "6.4",
    "TAVG": "-9.85"
  },
  {
    "STATION": "FMW00040308",
    "DATE": "2018-12",
    "LATITUDE": "9.48333",
    "LONGITUDE": "138.08333",
    "NAME": "YAP ISLAND WEATHER SERVICE OFFICE AIRPORT, FM FM",
    "PRCP": "271.3",
    "TAVG": "28.76"
  },
  {
    "STATION": "GMM00010253",
    "DATE": "2018-12",
    "LATITUDE": "52.9739",
    "LONGITUDE": "11.1392",
    "NAME": "LUCHOW, GM",
    "PRCP": "47.0",
    "TAVG": "4.90"
  },
  {
    "STATION": "ASN00093053",
    "DATE": "2018-12",
    "LATITUDE": "-42.025",
    "LONGITUDE": "147.4953",
    "NAME": "ROSS THE BOULEVARDS, AS",
    "PRCP": "37.2",
    "TAVG": "17.94"
  },
  {
    "STATION": "USS0021A36S",
    "DATE": "2018-12",
    "LATITUDE": "48.82",
    "LONGITUDE": "-121.93",
    "NAME": "MF NOOKSACK, WA US",
    "PRCP": "442.0",
    "TAVG": "-1.03"
  },
  {
    "STATION": "USS0006K46S",
    "DATE": "2018-12",
    "LATITUDE": "39.26",
    "LONGITUDE": "-106.63",
    "NAME": "CHAPMAN TUNNEL, CO US",
    "PRCP": "40.6",
    "TAVG": "-8.80"
  },
  {
    "STATION": "GME00124762",
    "DATE": "2018-12",
    "LATITUDE": "51.7528",
    "LONGITUDE": "12.0092",
    "NAME": "KOTHEN ANHALT, GM",
    "PRCP": "69.0",
    "TAVG": "4.82"
  },
  {
    "STATION": "SWE00140838",
    "DATE": "2018-12",
    "LATITUDE": "67.205",
    "LONGITUDE": "23.3953",
    "NAME": "PAJALA A, SW",
    "PRCP": "47.9",
    "TAVG": "-10.91"
  },
  {
    "STATION": "CA003016505",
    "DATE": "2018-12",
    "LATITUDE": "53.4333",
    "LONGITUDE": "-114.7167",
    "NAME": "TOMAHAWK AGDM, AB CA",
    "PRCP": "24.9",
    "TAVG": "-6.12"
  },
  {
    "STATION": "USW00003981",
    "DATE": "2018-12",
    "LATITUDE": "34.34444",
    "LONGITUDE": "-98.98306",
    "NAME": "FREDERICK MUNICIPAL AIRPORT, OK US",
    "PRCP": "34.2",
    "TAVG": "6.15"
  },
  {
    "STATION": "USW00003759",
    "DATE": "2018-12",
    "LATITUDE": "37.9975",
    "LONGITUDE": "-78.4656",
    "NAME": "CHARLOTTESVILLE 2 SSE, VA US",
    "PRCP": "183.6",
    "TAVG": "4.58"
  },
  {
    "STATION": "NLE00152478",
    "DATE": "2018-12",
    "LATITUDE": "52.6428",
    "LONGITUDE": "4.9789",
    "NAME": "BERKHOUT, NL",
    "PRCP": "87.3",
    "TAVG": "6.30"
  },
  {
    "STATION": "USS0006J03S",
    "DATE": "2018-12",
    "LATITUDE": "40.39",
    "LONGITUDE": "-106.6",
    "NAME": "COLUMBINE, CO US",
    "PRCP": "88.9",
    "TAVG": "-7.66"
  },
  {
    "STATION": "USW00053146",
    "DATE": "2018-12",
    "LATITUDE": "31.60722",
    "LONGITUDE": "-110.42806",
    "NAME": "FORT HUACHUCA PIONEER AIRFIELD, AZ US",
    "PRCP": "41.7",
    "TAVG": "8.67"
  },
  {
    "STATION": "CA00220B6Q3",
    "DATE": "2018-12",
    "LATITUDE": "67.1833",
    "LONGITUDE": "-130.2333",
    "NAME": "LITTLE CHICAGO, NT CA",
    "PRCP": "",
    "TAVG": "-19.61"
  },
  {
    "STATION": "SPE00120458",
    "DATE": "2018-12",
    "LATITUDE": "28.4631",
    "LONGITUDE": "-16.2553",
    "NAME": "STA. CRUZ DE TENERIFE, SP",
    "PRCP": "0.0",
    "TAVG": "19.77"
  },
  {
    "STATION": "SZ000003700",
    "DATE": "2018-12",
    "LATITUDE": "47.3831",
    "LONGITUDE": "8.5667",
    "NAME": "ZUERICH FLUNTERN, SZ",
    "PRCP": "157.7",
    "TAVG": "3.47"
  },
  {
    "STATION": "USW00003017",
    "DATE": "2018-12",
    "LATITUDE": "39.8328",
    "LONGITUDE": "-104.6575",
    "NAME": "DENVER INTERNATIONAL AIRPORT, CO US",
    "PRCP": "0.8",
    "TAVG": "0.30"
  },
  {
    "STATION": "USS0020K31S",
    "DATE": "2018-12",
    "LATITUDE": "39.33",
    "LONGITUDE": "-120.37",
    "NAME": "CSS LAB, CA US",
    "PRCP": "127.1",
    "TAVG": "-0.29"
  },
  {
    "STATION": "CA007023075",
    "DATE": "2018-12",
    "LATITUDE": "45.0667",
    "LONGITUDE": "-73.7167",
    "NAME": "HEMMINGFORD FOUR WINDS, QC CA",
    "PRCP": "",
    "TAVG": "-4.65"
  },
  {
    "STATION": "ASN00016065",
    "DATE": "2018-12",
    "LATITUDE": "-30.449",
    "LONGITUDE": "137.1692",
    "NAME": "ANDAMOOKA, AS",
    "PRCP": "0.0",
    "TAVG": "29.28"
  },
  {
    "STATION": "USW00053152",
    "DATE": "2018-12",
    "LATITUDE": "34.4141",
    "LONGITUDE": "-119.8796",
    "NAME": "SANTA BARBARA 11 W, CA US",
    "PRCP": "13.1",
    "TAVG": "12.70"
  },
  {
    "STATION": "GME00125326",
    "DATE": "2018-12",
    "LATITUDE": "54.3406",
    "LONGITUDE": "12.7106",
    "NAME": "BARTH, GM",
    "PRCP": "67.0",
    "TAVG": "4.33"
  },
  {
    "STATION": "GME00131434",
    "DATE": "2018-12",
    "LATITUDE": "48.6717",
    "LONGITUDE": "9.4633",
    "NAME": "NOTZINGEN, GM",
    "PRCP": "65.9",
    "TAVG": "4.13"
  },
  {
    "STATION": "CA002202810",
    "DATE": "2018-12",
    "LATITUDE": "65.2833",
    "LONGITUDE": "-126.75",
    "NAME": "NORMAN WELLS CLIMATE, NT CA",
    "PRCP": "6.9",
    "TAVG": "-18.81"
  },
  {
    "STATION": "ASN00050031",
    "DATE": "2018-12",
    "LATITUDE": "-32.7235",
    "LONGITUDE": "148.1902",
    "NAME": "PEAK HILL POST OFFICE, AS",
    "PRCP": "44.0",
    "TAVG": "26.52"
  },
  {
    "STATION": "CA006074211",
    "DATE": "2018-12",
    "LATITUDE": "48.15",
    "LONGITUDE": "-80.0",
    "NAME": "KIRKLAND LAKE CS, ON CA",
    "PRCP": "49.1",
    "TAVG": "-10.47"
  },
  {
    "STATION": "USW00003016",
    "DATE": "2018-12",
    "LATITUDE": "39.52778",
    "LONGITUDE": "-107.71972",
    "NAME": "RIFLE GARFIELD CO AIRPORT, CO US",
    "PRCP": "17.1",
    "TAVG": "-3.79"
  },
  {
    "STATION": "USS0012L07S",
    "DATE": "2018-12",
    "LATITUDE": "38.3",
    "LONGITUDE": "-112.36",
    "NAME": "BIG FLAT, UT US",
    "PRCP": "37.9",
    "TAVG": "-6.08"
  },
  {
    "STATION": "ASN00009178",
    "DATE": "2018-12",
    "LATITUDE": "-31.4628",
    "LONGITUDE": "115.8642",
    "NAME": "GINGIN AERO, AS",
    "PRCP": "0.4",
    "TAVG": "22.15"
  },
  {
    "STATION": "ASN00041100",
    "DATE": "2018-12",
    "LATITUDE": "-28.8544",
    "LONGITUDE": "151.1681",
    "NAME": "TEXAS POST OFFICE, AS",
    "PRCP": "46.6",
    "TAVG": "26.48"
  },
  {
    "STATION": "USW00004751",
    "DATE": "2018-12",
    "LATITUDE": "41.8",
    "LONGITUDE": "-78.6333",
    "NAME": "BRADFORD REGIONAL AIRPORT, PA US",
    "PRCP": "86.4",
    "TAVG": "-0.77"
  },
  {
    "STATION": "USW00003758",
    "DATE": "2018-12",
    "LATITUDE": "35.9705",
    "LONGITUDE": "-79.0931",
    "NAME": "DURHAM 11 W, NC US",
    "PRCP": "172.6",
    "TAVG": "6.80"
  },
  {
    "STATION": "NLE00152479",
    "DATE": "2018-12",
    "LATITUDE": "52.4342",
    "LONGITUDE": "6.2589",
    "NAME": "HEINO, NL",
    "PRCP": "81.2",
    "TAVG": "5.56"
  },
  {
    "STATION": "MP000061995",
    "DATE": "2018-12",
    "LATITUDE": "-20.3",
    "LONGITUDE": "57.5",
    "NAME": "VACOAS MAURITIUS, MP",
    "PRCP": "225.6",
    "TAVG": "24.54"
  },
  {
    "STATION": "SWE00138028",
    "DATE": "2018-12",
    "LATITUDE": "57.27",
    "LONGITUDE": "16.41",
    "NAME": "OSKARSHAMN, SW",
    "PRCP": "60.1",
    "TAVG": "1.44"
  },
  {
    "STATION": "USW00003994",
    "DATE": "2018-12",
    "LATITUDE": "38.70417",
    "LONGITUDE": "-93.18333",
    "NAME": "SEDALIA MEMORIAL AIRPORT, MO US",
    "PRCP": "63.2",
    "TAVG": "1.68"
  },
  {
    "STATION": "GME00130702",
    "DATE": "2018-12",
    "LATITUDE": "50.7328",
    "LONGITUDE": "13.7531",
    "NAME": "ZINNWALD GEORGENFELD, GM",
    "PRCP": "180.8",
    "TAVG": "-0.78"
  },
  {
    "STATION": "CA007055121",
    "DATE": "2018-12",
    "LATITUDE": "48.6167",
    "LONGITUDE": "-68.2",
    "NAME": "MONT JOLI A, QC CA",
    "PRCP": "41.8",
    "TAVG": "-7.30"
  },
  {
    "STATION": "CA006134190",
    "DATE": "2018-12",
    "LATITUDE": "42.05",
    "LONGITUDE": "-82.6667",
    "NAME": "KINGSVILLE MOE, ON CA",
    "PRCP": "19.4",
    "TAVG": "1.27"
  },
  {
    "STATION": "GME00128818",
    "DATE": "2018-12",
    "LATITUDE": "48.0728",
    "LONGITUDE": "9.1953",
    "NAME": "SIGMARINGEN LAIZ, GM",
    "PRCP": "86.2",
    "TAVG": "1.74"
  },
  {
    "STATION": "USS0010J06S",
    "DATE": "2018-12",
    "LATITUDE": "40.98",
    "LONGITUDE": "-110.85",
    "NAME": "BURTS MILLER RANCH, UT US",
    "PRCP": "20.3",
    "TAVG": "-5.70"
  },
  {
    "STATION": "SWE00140178",
    "DATE": "2018-12",
    "LATITUDE": "63.8081",
    "LONGITUDE": "20.8692",
    "NAME": "HOLMON A, SW",
    "PRCP": "88.8",
    "TAVG": "-1.25"
  },
  {
    "STATION": "USS0015H04S",
    "DATE": "2018-12",
    "LATITUDE": "41.76",
    "LONGITUDE": "-115.69",
    "NAME": "BIG BEND, NV US",
    "PRCP": "55.8",
    "TAVG": "-3.97"
  },
  {
    "STATION": "CA008205895",
    "DATE": "2018-12",
    "LATITUDE": "45.6167",
    "LONGITUDE": "-61.6833",
    "NAME": "TRACADIE, NS CA",
    "PRCP": "83.1",
    "TAVG": "-3.07"
  },
  {
    "STATION": "NLE00152492",
    "DATE": "2018-12",
    "LATITUDE": "51.1967",
    "LONGITUDE": "5.7625",
    "NAME": "ELL, NL",
    "PRCP": "81.1",
    "TAVG": "5.45"
  },
  {
    "STATION": "CA006010740",
    "DATE": "2018-12",
    "LATITUDE": "53.8167",
    "LONGITUDE": "-89.9",
    "NAME": "BIG TROUT LAKE, ON CA",
    "PRCP": "4.9",
    "TAVG": "-16.10"
  },
  {
    "STATION": "RP000986530",
    "DATE": "2018-12",
    "LATITUDE": "9.8",
    "LONGITUDE": "125.5",
    "NAME": "SURIGAO, RP",
    "PRCP": "618.2",
    "TAVG": "27.27"
  },
  {
    "STATION": "ASN00009193",
    "DATE": "2018-12",
    "LATITUDE": "-32.0069",
    "LONGITUDE": "115.5022",
    "NAME": "ROTTNEST ISLAND, AS",
    "PRCP": "4.4",
    "TAVG": "20.90"
  },
  {
    "STATION": "CA003062246",
    "DATE": "2018-12",
    "LATITUDE": "53.5833",
    "LONGITUDE": "-116.45",
    "NAME": "EDSON CLIMATE, AB CA",
    "PRCP": "5.8",
    "TAVG": "-6.53"
  },
  {
    "STATION": "SWE00140622",
    "DATE": "2018-12",
    "LATITUDE": "65.8197",
    "LONGITUDE": "24.12",
    "NAME": "HAPARANDA A, SW",
    "PRCP": "55.3",
    "TAVG": "-5.96"
  },
  {
    "STATION": "CA007043019",
    "DATE": "2018-12",
    "LATITUDE": "50.2833",
    "LONGITUDE": "-63.6167",
    "NAME": "HAVRE ST. PIERRE, QC CA",
    "PRCP": "5.0",
    "TAVG": "-9.62"
  },
  {
    "STATION": "CA001064728",
    "DATE": "2018-12",
    "LATITUDE": "54.3",
    "LONGITUDE": "-130.6167",
    "NAME": "LUCY ISLAND LIGHTSTATION, BC CA",
    "PRCP": "",
    "TAVG": "5.59"
  },
  {
    "STATION": "USW00026533",
    "DATE": "2018-12",
    "LATITUDE": "66.9169",
    "LONGITUDE": "-151.5154",
    "NAME": "BETTLES AIRPORT, AK US",
    "PRCP": "88.8",
    "TAVG": "-18.17"
  },
  {
    "STATION": "GME00128830",
    "DATE": "2018-12",
    "LATITUDE": "47.5783",
    "LONGITUDE": "9.7417",
    "NAME": "SIGMARSZELL ZEISERTSWEILER, GM",
    "PRCP": "164.9",
    "TAVG": "2.92"
  },
  {
    "STATION": "USW00003957",
    "DATE": "2018-12",
    "LATITUDE": "37.2839",
    "LONGITUDE": "-98.5528",
    "NAME": "MEDICINE LODGE 1 E, KS US",
    "PRCP": "63.8",
    "TAVG": "2.84"
  },
  {
    "STATION": "ASN00023034",
    "DATE": "2018-12",
    "LATITUDE": "-34.9524",
    "LONGITUDE": "138.5204",
    "NAME": "ADELAIDE AIRPORT, AS",
    "PRCP": "21.0",
    "TAVG": "22.56"
  },
  {
    "STATION": "ASN00047029",
    "DATE": "2018-12",
    "LATITUDE": "-33.3856",
    "LONGITUDE": "142.5696",
    "NAME": "POONCARIE MAIL AGENCY, AS",
    "PRCP": "24.2",
    "TAVG": "27.53"
  },
  {
    "STATION": "SWE00138202",
    "DATE": "2018-12",
    "LATITUDE": "57.71",
    "LONGITUDE": "16.46",
    "NAME": "GLADHAMMAR A, SW",
    "PRCP": "66.0",
    "TAVG": "1.10"
  },
  {
    "STATION": "USS0017J02S",
    "DATE": "2018-12",
    "LATITUDE": "40.88",
    "LONGITUDE": "-117.59",
    "NAME": "GOLCONDA, NV US",
    "PRCP": "76.0",
    "TAVG": "-0.79"
  },
  {
    "STATION": "USS0016E10S",
    "DATE": "2018-12",
    "LATITUDE": "44.61",
    "LONGITUDE": "-116.98",
    "NAME": "BEAR SADDLE, ID US",
    "PRCP": "131.8",
    "TAVG": "-4.66"
  },
  {
    "STATION": "CA002203918",
    "DATE": "2018-12",
    "LATITUDE": "69.2",
    "LONGITUDE": "-122.3667",
    "NAME": "TUKTUT NOGAIT, NT CA",
    "PRCP": "",
    "TAVG": "-17.55"
  },
  {
    "STATION": "USW00014768",
    "DATE": "2018-12",
    "LATITUDE": "43.1167",
    "LONGITUDE": "-77.6767",
    "NAME": "ROCHESTER GREATER INTERNATIONAL, NY US",
    "PRCP": "66.1",
    "TAVG": "1.07"
  },
  {
    "STATION": "MUM00041253",
    "DATE": "2018-12",
    "LATITUDE": "23.417",
    "LONGITUDE": "57.433",
    "NAME": "RUSTAQ, MU",
    "PRCP": "",
    "TAVG": "22.10"
  },
  {
    "STATION": "GME00123226",
    "DATE": "2018-12",
    "LATITUDE": "49.9325",
    "LONGITUDE": "6.3756",
    "NAME": "OLSDORF, GM",
    "PRCP": "132.8",
    "TAVG": "3.66"
  },
  {
    "STATION": "SWE00138216",
    "DATE": "2018-12",
    "LATITUDE": "57.72",
    "LONGITUDE": "14.99",
    "NAME": "PRASTKULLA, SW",
    "PRCP": "51.9",
    "TAVG": "-0.37"
  },
  {
    "STATION": "CA006080192",
    "DATE": "2018-12",
    "LATITUDE": "45.5333",
    "LONGITUDE": "-78.2667",
    "NAME": "ALGONQUIN PARK EAST GATE, ON CA",
    "PRCP": "71.4",
    "TAVG": "-7.72"
  },
  {
    "STATION": "GME00127726",
    "DATE": "2018-12",
    "LATITUDE": "48.7433",
    "LONGITUDE": "8.925",
    "NAME": "RENNINGEN IHINGER HOF, GM",
    "PRCP": "82.5",
    "TAVG": "3.25"
  },
  {
    "STATION": "USW00013991",
    "DATE": "2018-12",
    "LATITUDE": "39.1341",
    "LONGITUDE": "-93.2225",
    "NAME": "MARSHALL, MO US",
    "PRCP": "81.0",
    "TAVG": "1.62"
  },
  {
    "STATION": "SIE00115196",
    "DATE": "2018-12",
    "LATITUDE": "46.7",
    "LONGITUDE": "16.2",
    "NAME": "MURSKA SOBOTA RAKICAN, SI",
    "PRCP": "9.0",
    "TAVG": "1.52"
  },
  {
    "STATION": "ASN00022841",
    "DATE": "2018-12",
    "LATITUDE": "-35.7114",
    "LONGITUDE": "137.5231",
    "NAME": "KINGSCOTE AERO, AS",
    "PRCP": "31.8",
    "TAVG": "19.48"
  },
  {
    "STATION": "CA003012206",
    "DATE": "2018-12",
    "LATITUDE": "53.3",
    "LONGITUDE": "-113.6",
    "NAME": "EDMONTON INTERNATIONAL CS, AB CA",
    "PRCP": "41.4",
    "TAVG": "-8.97"
  },
  {
    "STATION": "USW00094626",
    "DATE": "2018-12",
    "LATITUDE": "45.46222",
    "LONGITUDE": "-69.59528",
    "NAME": "GREENVILLE MAINE FORESTRY SERVICE, ME US",
    "PRCP": "86.8",
    "TAVG": "-6.67"
  },
  {
    "STATION": "USW00014740",
    "DATE": "2018-12",
    "LATITUDE": "41.9375",
    "LONGITUDE": "-72.6819",
    "NAME": "HARTFORD BRADLEY INTERNATIONAL AIRPORT, CT US",
    "PRCP": "126.1",
    "TAVG": "0.67"
  },
  {
    "STATION": "CA007047914",
    "DATE": "2018-12",
    "LATITUDE": "50.2167",
    "LONGITUDE": "-66.25",
    "NAME": "SEPT ILES, QC CA",
    "PRCP": "70.3",
    "TAVG": "-10.45"
  },
  {
    "STATION": "USS0013B07S",
    "DATE": "2018-12",
    "LATITUDE": "47.27",
    "LONGITUDE": "-113.76",
    "NAME": "NORTH FORK JOCKO, MT US",
    "PRCP": "177.5",
    "TAVG": "-6.01"
  },
  {
    "STATION": "CA003012212",
    "DATE": "2018-12",
    "LATITUDE": "53.6667",
    "LONGITUDE": "-113.4667",
    "NAME": "EDMONTON NAMAO AWOS A, AB CA",
    "PRCP": "",
    "TAVG": "-7.88"
  },
  {
    "STATION": "USW00013985",
    "DATE": "2018-12",
    "LATITUDE": "37.7686",
    "LONGITUDE": "-99.9678",
    "NAME": "DODGE CITY REGIONAL AIRPORT, KS US",
    "PRCP": "30.5",
    "TAVG": "1.39"
  },
  {
    "STATION": "SWE00139134",
    "DATE": "2018-12",
    "LATITUDE": "59.83",
    "LONGITUDE": "18.63",
    "NAME": "SVANBERGA A, SW",
    "PRCP": "57.8",
    "TAVG": "-0.71"
  },
  {
    "STATION": "GMM00010736",
    "DATE": "2018-12",
    "LATITUDE": "48.9731",
    "LONGITUDE": "8.8742",
    "NAME": "MUHLACKER, GM",
    "PRCP": "96.9",
    "TAVG": "4.00"
  },
  {
    "STATION": "USW00093808",
    "DATE": "2018-12",
    "LATITUDE": "36.9647",
    "LONGITUDE": "-86.4238",
    "NAME": "BOWLING GREEN WARREN CO AIRPORT, KY US",
    "PRCP": "130.2",
    "TAVG": "5.95"
  },
  {
    "STATION": "USS0010G02S",
    "DATE": "2018-12",
    "LATITUDE": "42.96",
    "LONGITUDE": "-110.61",
    "NAME": "BLIND BULL SUM, WY US",
    "PRCP": "43.0",
    "TAVG": "-8.55"
  },
  {
    "STATION": "CA008401300",
    "DATE": "2018-12",
    "LATITUDE": "48.95",
    "LONGITUDE": "-57.95",
    "NAME": "CORNER BROOK, NL CA",
    "PRCP": "83.2",
    "TAVG": "-3.71"
  },
  {
    "STATION": "SWE00137680",
    "DATE": "2018-12",
    "LATITUDE": "56.15",
    "LONGITUDE": "15.59",
    "NAME": "KARLSKRONA SODERSTJ., SW",
    "PRCP": "33.4",
    "TAVG": "3.30"
  },
  {
    "STATION": "GME00120934",
    "DATE": "2018-12",
    "LATITUDE": "47.8756",
    "LONGITUDE": "8.0044",
    "NAME": "FELDBERG SCHWARZWALD, GM",
    "PRCP": "332.4",
    "TAVG": "-0.75"
  },
  {
    "STATION": "USW00094815",
    "DATE": "2018-12",
    "LATITUDE": "42.23472",
    "LONGITUDE": "-85.55194",
    "NAME": "KALAMAZOO BATTLE CREEK INTERNATIONAL AIRPORT, MI US",
    "PRCP": "47.4",
    "TAVG": "0.47"
  },
  {
    "STATION": "GME00129910",
    "DATE": "2018-12",
    "LATITUDE": "50.0367",
    "LONGITUDE": "7.3056",
    "NAME": "BLANKENRATH, GM",
    "PRCP": "128.8",
    "TAVG": "3.36"
  },
  {
    "STATION": "USW00024126",
    "DATE": "2018-12",
    "LATITUDE": "41.19611",
    "LONGITUDE": "-112.01139",
    "NAME": "OGDEN HINKLEY AIRPORT, UT US",
    "PRCP": "8.5",
    "TAVG": "-1.10"
  },
  {
    "STATION": "CA007024280",
    "DATE": "2018-12",
    "LATITUDE": "45.3667",
    "LONGITUDE": "-71.8167",
    "NAME": "LENNOXVILLE, QC CA",
    "PRCP": "80.9",
    "TAVG": "-6.70"
  },
  {
    "STATION": "USS0014F04S",
    "DATE": "2018-12",
    "LATITUDE": "43.8",
    "LONGITUDE": "-114.85",
    "NAME": "VIENNA MINE, ID US",
    "PRCP": "119.4",
    "TAVG": "-6.16"
  },
  {
    "STATION": "CA007056616",
    "DATE": "2018-12",
    "LATITUDE": "47.8",
    "LONGITUDE": "-69.55",
    "NAME": "RIVIERE DU LOUP, QC CA",
    "PRCP": "67.8",
    "TAVG": "-8.26"
  },
  {
    "STATION": "SPE00156054",
    "DATE": "2018-12",
    "LATITUDE": "41.6128",
    "LONGITUDE": "2.1681",
    "NAME": "CALDES DE MONTBUI, SP",
    "PRCP": "6.9",
    "TAVG": "9.01"
  },
  {
    "STATION": "CA006155750",
    "DATE": "2018-12",
    "LATITUDE": "43.5167",
    "LONGITUDE": "-79.6833",
    "NAME": "OAKVILLE TWN, ON CA",
    "PRCP": "75.6",
    "TAVG": "0.49"
  },
  {
    "STATION": "FIE00144522",
    "DATE": "2018-12",
    "LATITUDE": "63.4453",
    "LONGITUDE": "24.4478",
    "NAME": "HALSUA KANALA PUROLA, FI",
    "PRCP": "35.3",
    "TAVG": "-4.29"
  },
  {
    "STATION": "USW00024132",
    "DATE": "2018-12",
    "LATITUDE": "45.788",
    "LONGITUDE": "-111.1608",
    "NAME": "BOZEMAN GALLATIN FIELD AIRPORT, MT US",
    "PRCP": "4.2",
    "TAVG": "-5.24"
  },
  {
    "STATION": "SWE00140352",
    "DATE": "2018-12",
    "LATITUDE": "64.55",
    "LONGITUDE": "18.72",
    "NAME": "LYCKSELE A, SW",
    "PRCP": "70.0",
    "TAVG": "-8.84"
  },
  {
    "STATION": "USW00094197",
    "DATE": "2018-12",
    "LATITUDE": "48.464444",
    "LONGITUDE": "-119.516944",
    "NAME": "OMAK, WA US",
    "PRCP": "35.9",
    "TAVG": "0.15"
  },
  {
    "STATION": "CA003072525",
    "DATE": "2018-12",
    "LATITUDE": "56.0833",
    "LONGITUDE": "-118.4333",
    "NAME": "FAIRVIEW AGDM, AB CA",
    "PRCP": "19.7",
    "TAVG": "-10.40"
  },
  {
    "STATION": "USW00093820",
    "DATE": "2018-12",
    "LATITUDE": "38.0408",
    "LONGITUDE": "-84.6058",
    "NAME": "LEXINGTON BLUEGRASS AIRPORT, KY US",
    "PRCP": "153.9",
    "TAVG": "5.01"
  },
  {
    "STATION": "USW00094008",
    "DATE": "2018-12",
    "LATITUDE": "48.2138",
    "LONGITUDE": "-106.6214",
    "NAME": "GLASGOW INTERNATIONAL AIRPORT, MT US",
    "PRCP": "17.9",
    "TAVG": "-4.99"
  },
  {
    "STATION": "SWE00139068",
    "DATE": "2018-12",
    "LATITUDE": "59.66",
    "LONGITUDE": "14.18",
    "NAME": "DAGLOSEN A, SW",
    "PRCP": "55.9",
    "TAVG": "-2.23"
  },
  {
    "STATION": "USS0018E18S",
    "DATE": "2018-12",
    "LATITUDE": "44.21",
    "LONGITUDE": "-118.64",
    "NAME": "LAKE CREEK RANGER STATION, OR US",
    "PRCP": "98.9",
    "TAVG": "-4.12"
  },
  {
    "STATION": "ASN00092012",
    "DATE": "2018-12",
    "LATITUDE": "-41.6428",
    "LONGITUDE": "147.9664",
    "NAME": "FINGAL LEGGE STREET, AS",
    "PRCP": "65.0",
    "TAVG": "16.93"
  },
  {
    "STATION": "GME00102388",
    "DATE": "2018-12",
    "LATITUDE": "48.8283",
    "LONGITUDE": "12.5603",
    "NAME": "STRAUBING, GM",
    "PRCP": "116.6",
    "TAVG": "2.36"
  },
  {
    "STATION": "GM000004155",
    "DATE": "2018-12",
    "LATITUDE": "47.4219",
    "LONGITUDE": "10.9867",
    "NAME": "ZUGSPITZE, GM",
    "PRCP": "361.7",
    "TAVG": "-9.53"
  },
  {
    "STATION": "RPW00041229",
    "DATE": "2018-12",
    "LATITUDE": "14.55",
    "LONGITUDE": "120.98333",
    "NAME": "MANILA, RP",
    "PRCP": "",
    "TAVG": "27.47"
  },
  {
    "STATION": "NOE00133110",
    "DATE": "2018-12",
    "LATITUDE": "69.9775",
    "LONGITUDE": "23.3581",
    "NAME": "ALTA LUFTHAVN, NO",
    "PRCP": "20.5",
    "TAVG": "-3.94"
  },
  {
    "STATION": "USS0049L14S",
    "DATE": "2018-12",
    "LATITUDE": "60.26",
    "LONGITUDE": "-149.34",
    "NAME": "GROUSE CREEK DIVIDE, AK US",
    "PRCP": "258.8",
    "TAVG": "-2.51"
  },
  {
    "STATION": "SWE00138362",
    "DATE": "2018-12",
    "LATITUDE": "58.09",
    "LONGITUDE": "11.33",
    "NAME": "MASESKAR A, SW",
    "PRCP": "30.6",
    "TAVG": "3.81"
  },
  {
    "STATION": "USS0023B18S",
    "DATE": "2018-12",
    "LATITUDE": "47.71",
    "LONGITUDE": "-123.46",
    "NAME": "BUCKINGHORSE, WA US",
    "PRCP": "673.5",
    "TAVG": "-0.37"
  },
  {
    "STATION": "USW00093773",
    "DATE": "2018-12",
    "LATITUDE": "36.9827",
    "LONGITUDE": "-77.0012",
    "NAME": "WAKEFIELD MUNICIPAL AIRPORT, VA US",
    "PRCP": "112.1",
    "TAVG": "6.73"
  },
  {
    "STATION": "ASN00014277",
    "DATE": "2018-12",
    "LATITUDE": "-12.635",
    "LONGITUDE": "130.3725",
    "NAME": "DUM IN MIRRIE AWS, AS",
    "PRCP": "119.4",
    "TAVG": "30.43"
  },
  {
    "STATION": "USW00024091",
    "DATE": "2018-12",
    "LATITUDE": "40.51",
    "LONGITUDE": "-101.62",
    "NAME": "IMPERIAL MUNICIPAL AIRPORT, NE US",
    "PRCP": "9.5",
    "TAVG": "-1.03"
  },
  {
    "STATION": "USS0007F02S",
    "DATE": "2018-12",
    "LATITUDE": "43.63",
    "LONGITUDE": "-107.18",
    "NAME": "MIDDLE POWDER, WY US",
    "PRCP": "25.4",
    "TAVG": "-5.46"
  },
  {
    "STATION": "SWE00139732",
    "DATE": "2018-12",
    "LATITUDE": "62.05",
    "LONGITUDE": "14.41",
    "NAME": "SVEG A, SW",
    "PRCP": "54.0",
    "TAVG": "-8.17"
  },
  {
    "STATION": "USW00094746",
    "DATE": "2018-12",
    "LATITUDE": "42.2706",
    "LONGITUDE": "-71.8731",
    "NAME": "WORCESTER, MA US",
    "PRCP": "118.2",
    "TAVG": "-0.53"
  },
  {
    "STATION": "USW00093997",
    "DATE": "2018-12",
    "LATITUDE": "38.87611",
    "LONGITUDE": "-98.80917",
    "NAME": "RUSSELL MUNICIPAL AIRPORT, KS US",
    "PRCP": "48.0",
    "TAVG": "0.79"
  },
  {
    "STATION": "SPE00156108",
    "DATE": "2018-12",
    "LATITUDE": "41.6756",
    "LONGITUDE": "1.2958",
    "NAME": "CERVERA, SP",
    "PRCP": "7.3",
    "TAVG": "5.87"
  },
  {
    "STATION": "USW00023067",
    "DATE": "2018-12",
    "LATITUDE": "38.0494",
    "LONGITUDE": "-103.5122",
    "NAME": "LA JUNTA MUNICIPAL AIRPORT, CO US",
    "PRCP": "0.6",
    "TAVG": "1.12"
  },
  {
    "STATION": "CA003016841",
    "DATE": "2018-12",
    "LATITUDE": "53.1833",
    "LONGITUDE": "-111.7333",
    "NAME": "VIKING AGCM, AB CA",
    "PRCP": "12.1",
    "TAVG": "-9.74"
  },
  {
    "STATION": "ASN00039326",
    "DATE": "2018-12",
    "LATITUDE": "-23.8697",
    "LONGITUDE": "151.2214",
    "NAME": "GLADSTONE AIRPORT, AS",
    "PRCP": "112.0",
    "TAVG": "26.53"
  },
  {
    "STATION": "USW00094961",
    "DATE": "2018-12",
    "LATITUDE": "48.71667",
    "LONGITUDE": "-94.6",
    "NAME": "BAUDETTE INTERNATIONAL AIRPORT, MN US",
    "PRCP": "10.2",
    "TAVG": "-8.45"
  },
  {
    "STATION": "GME00111445",
    "DATE": "2018-12",
    "LATITUDE": "52.4683",
    "LONGITUDE": "13.4039",
    "NAME": "BERLIN TEMPELHOF, GM",
    "PRCP": "44.1",
    "TAVG": "4.83"
  },
  {
    "STATION": "CA004041000",
    "DATE": "2018-12",
    "LATITUDE": "53.45",
    "LONGITUDE": "-109.2",
    "NAME": "BUTTE ST PIERRE, SK CA",
    "PRCP": "26.8",
    "TAVG": "-11.48"
  },
  {
    "STATION": "NOE00111372",
    "DATE": "2018-12",
    "LATITUDE": "77.8831",
    "LONGITUDE": "16.7167",
    "NAME": "SVEAGRUVA, NO",
    "PRCP": "",
    "TAVG": "-6.55"
  },
  {
    "STATION": "CA005031A10",
    "DATE": "2018-12",
    "LATITUDE": "53.1833",
    "LONGITUDE": "-99.2667",
    "NAME": "GRAND RAPIDS AUT, MB CA",
    "PRCP": "8.7",
    "TAVG": "-12.40"
  },
  {
    "STATION": "CA006142402",
    "DATE": "2018-12",
    "LATITUDE": "43.7",
    "LONGITUDE": "-80.3833",
    "NAME": "FERGUS MOE, ON CA",
    "PRCP": "100.2",
    "TAVG": "-1.89"
  },
  {
    "STATION": "SWE00140554",
    "DATE": "2018-12",
    "LATITUDE": "65.5431",
    "LONGITUDE": "22.1192",
    "NAME": "LULEA FLYGPLATS, SW",
    "PRCP": "61.0",
    "TAVG": "-7.65"
  },
  {
    "STATION": "USW00094949",
    "DATE": "2018-12",
    "LATITUDE": "40.6005",
    "LONGITUDE": "-98.4258",
    "NAME": "HASTINGS MUNICIPAL AIRPORT, NE US",
    "PRCP": "79.5",
    "TAVG": "-0.55"
  },
  {
    "STATION": "ASN00064009",
    "DATE": "2018-12",
    "LATITUDE": "-32.0159",
    "LONGITUDE": "149.3964",
    "NAME": "DUNEDOO POST OFFICE, AS",
    "PRCP": "45.8",
    "TAVG": "25.53"
  },
  {
    "STATION": "SWE00137910",
    "DATE": "2018-12",
    "LATITUDE": "56.92",
    "LONGITUDE": "18.1664",
    "NAME": "HOBURG, SW",
    "PRCP": "47.1",
    "TAVG": "2.68"
  },
  {
    "STATION": "FIE00142741",
    "DATE": "2018-12",
    "LATITUDE": "60.6464",
    "LONGITUDE": "23.8092",
    "NAME": "SOMERO SALKOLA, FI",
    "PRCP": "41.2",
    "TAVG": "-2.99"
  },
  {
    "STATION": "USS0014F12S",
    "DATE": "2018-12",
    "LATITUDE": "43.87",
    "LONGITUDE": "-114.71",
    "NAME": "GALENA SUMMIT, ID US",
    "PRCP": "76.0",
    "TAVG": "-7.96"
  },
  {
    "STATION": "USW00024046",
    "DATE": "2018-12",
    "LATITUDE": "40.49278",
    "LONGITUDE": "-107.52417",
    "NAME": "CRAIG MOFFAT CO AIRPORT, CO US",
    "PRCP": "18.4",
    "TAVG": "-7.69"
  },
  {
    "STATION": "USS0013C03S",
    "DATE": "2018-12",
    "LATITUDE": "46.24",
    "LONGITUDE": "-113.77",
    "NAME": "SKALKAHO SUMMIT, MT US",
    "PRCP": "83.4",
    "TAVG": "-6.32"
  },
  {
    "STATION": "SPE00120539",
    "DATE": "2018-12",
    "LATITUDE": "40.9258",
    "LONGITUDE": "-1.2931",
    "NAME": "CALAMOCHA, SP",
    "PRCP": "15.0",
    "TAVG": "6.07"
  },
  {
    "STATION": "USS0021F22S",
    "DATE": "2018-12",
    "LATITUDE": "43.23",
    "LONGITUDE": "-121.81",
    "NAME": "CHEMULT ALTERNATE, OR US",
    "PRCP": "83.7",
    "TAVG": "-1.89"
  },
  {
    "STATION": "ASN00052020",
    "DATE": "2018-12",
    "LATITUDE": "-28.9786",
    "LONGITUDE": "148.9899",
    "NAME": "MUNGINDI POST OFFICE, AS",
    "PRCP": "8.6",
    "TAVG": "29.27"
  },
  {
    "STATION": "CA003045000",
    "DATE": "2018-12",
    "LATITUDE": "49.2167",
    "LONGITUDE": "-111.1333",
    "NAME": "PAKOWKI LAKE AGCM, AB CA",
    "PRCP": "",
    "TAVG": "-4.06"
  },
  {
    "STATION": "SWM00002468",
    "DATE": "2018-12",
    "LATITUDE": "56.85",
    "LONGITUDE": "14.83",
    "NAME": "VAXJO A, SW",
    "PRCP": "41.5",
    "TAVG": "1.05"
  },
  {
    "STATION": "USS0016H02S",
    "DATE": "2018-12",
    "LATITUDE": "41.55",
    "LONGITUDE": "-116.01",
    "NAME": "JACK CREEK UPPER, NV US",
    "PRCP": "83.7",
    "TAVG": "-2.82"
  },
  {
    "STATION": "USW00096409",
    "DATE": "2018-12",
    "LATITUDE": "68.6483",
    "LONGITUDE": "-149.3986",
    "NAME": "TOOLIK LAKE 5 ENE, AK US",
    "PRCP": "",
    "TAVG": "-21.15"
  },
  {
    "STATION": "USW00003162",
    "DATE": "2018-12",
    "LATITUDE": "36.92611",
    "LONGITUDE": "-111.44778",
    "NAME": "PAGE MUNICIPAL AIRPORT, AZ US",
    "PRCP": "12.0",
    "TAVG": "3.25"
  },
  {
    "STATION": "SWE00138606",
    "DATE": "2018-12",
    "LATITUDE": "58.71",
    "LONGITUDE": "13.82",
    "NAME": "MARIESTAD, SW",
    "PRCP": "45.4",
    "TAVG": "1.18"
  },
  {
    "STATION": "GME00131554",
    "DATE": "2018-12",
    "LATITUDE": "50.0589",
    "LONGITUDE": "10.2983",
    "NAME": "SCHONUNGEN MAINBERG, GM",
    "PRCP": "79.2",
    "TAVG": "3.46"
  },
  {
    "STATION": "USW00094236",
    "DATE": "2018-12",
    "LATITUDE": "42.14694",
    "LONGITUDE": "-121.72417",
    "NAME": "KLAMATH FALLS INTERNATIONAL AIRPORT, OR US",
    "PRCP": "41.2",
    "TAVG": "-0.37"
  },
  {
    "STATION": "USS0007K06S",
    "DATE": "2018-12",
    "LATITUDE": "39.05",
    "LONGITUDE": "-107.87",
    "NAME": "PARK RESERVOIR, CO US",
    "PRCP": "83.7",
    "TAVG": "-8.38"
  },
  {
    "STATION": "USS0006M17S",
    "DATE": "2018-12",
    "LATITUDE": "37.48",
    "LONGITUDE": "-106.8",
    "NAME": "WOLF CREEK SUMMIT, CO US",
    "PRCP": "63.3",
    "TAVG": "-4.81"
  },
  {
    "STATION": "FIE00145562",
    "DATE": "2018-12",
    "LATITUDE": "64.2975",
    "LONGITUDE": "30.17",
    "NAME": "KUHMO KALLIOJOKI, FI",
    "PRCP": "37.6",
    "TAVG": "-7.35"
  },
  {
    "STATION": "USW00063899",
    "DATE": "2018-12",
    "LATITUDE": "31.1449",
    "LONGITUDE": "-87.0518",
    "NAME": "BREWTON 3 NNE, AL US",
    "PRCP": "270.9",
    "TAVG": "11.48"
  },
  {
    "STATION": "CA003035530",
    "DATE": "2018-12",
    "LATITUDE": "50.2667",
    "LONGITUDE": "-111.7",
    "NAME": "ROLLING HILLS AGCM, AB CA",
    "PRCP": "5.6",
    "TAVG": "-4.21"
  },
  {
    "STATION": "USW00012912",
    "DATE": "2018-12",
    "LATITUDE": "28.8614",
    "LONGITUDE": "-96.9303",
    "NAME": "VICTORIA REGIONAL AIRPORT, TX US",
    "PRCP": "125.8",
    "TAVG": "13.71"
  },
  {
    "STATION": "CA003065475",
    "DATE": "2018-12",
    "LATITUDE": "54.5",
    "LONGITUDE": "-111.7",
    "NAME": "RICH LAKE AGDM, AB CA",
    "PRCP": "19.9",
    "TAVG": "-11.52"
  },
  {
    "STATION": "USW00023271",
    "DATE": "2018-12",
    "LATITUDE": "38.5552",
    "LONGITUDE": "-121.4183",
    "NAME": "SACRAMENTO 5 ESE, CA US",
    "PRCP": "67.1",
    "TAVG": "10.31"
  },
  {
    "STATION": "FIE00146057",
    "DATE": "2018-12",
    "LATITUDE": "65.5739",
    "LONGITUDE": "28.2481",
    "NAME": "TAIVALKOSKI KK KAUPPATIE, FI",
    "PRCP": "34.5",
    "TAVG": "-7.25"
  },
  {
    "STATION": "USW00025628",
    "DATE": "2018-12",
    "LATITUDE": "56.6",
    "LONGITUDE": "-169.565",
    "NAME": "ST GEORGE ISLAND AIRPORT, AK US",
    "PRCP": "38.4",
    "TAVG": "-1.53"
  },
  {
    "STATION": "USW00023259",
    "DATE": "2018-12",
    "LATITUDE": "36.5881",
    "LONGITUDE": "-121.8453",
    "NAME": "MONTEREY PENINSUL AIRPORT, CA US",
    "PRCP": "46.5",
    "TAVG": "11.34"
  },
  {
    "STATION": "BLM00085123",
    "DATE": "2018-12",
    "LATITUDE": "-13.762",
    "LONGITUDE": "-65.435",
    "NAME": "SANTA ANA DEL YACUMA, BL",
    "PRCP": "",
    "TAVG": "27.27"
  },
  {
    "STATION": "SPE00156450",
    "DATE": "2018-12",
    "LATITUDE": "42.4353",
    "LONGITUDE": "3.1658",
    "NAME": "PORTBOU, SP",
    "PRCP": "29.8",
    "TAVG": "12.59"
  },
  {
    "STATION": "FIE00144132",
    "DATE": "2018-12",
    "LATITUDE": "61.8017",
    "LONGITUDE": "29.3181",
    "NAME": "PUNKAHARJU LAUKANSAARI, FI",
    "PRCP": "38.1",
    "TAVG": "-5.18"
  },
  {
    "STATION": "ASN00009965",
    "DATE": "2018-12",
    "LATITUDE": "-33.3567",
    "LONGITUDE": "115.6447",
    "NAME": "BUNBURY, AS",
    "PRCP": "5.8",
    "TAVG": "19.78"
  },
  {
    "STATION": "USS0005M07S",
    "DATE": "2018-12",
    "LATITUDE": "37.33",
    "LONGITUDE": "-105.07",
    "NAME": "APISHAPA, CO US",
    "PRCP": "63.4",
    "TAVG": "-2.68"
  },
  {
    "STATION": "USS0042M01S",
    "DATE": "2018-12",
    "LATITUDE": "61.35",
    "LONGITUDE": "-142.71",
    "NAME": "MAY CREEK, AK US",
    "PRCP": "12.6",
    "TAVG": "-11.80"
  },
  {
    "STATION": "SF000508870",
    "DATE": "2018-12",
    "LATITUDE": "-33.283",
    "LONGITUDE": "23.5",
    "NAME": "WILLOWMORE, SF",
    "PRCP": "",
    "TAVG": "24.10"
  },
  {
    "STATION": "GME00102177",
    "DATE": "2018-12",
    "LATITUDE": "54.1764",
    "LONGITUDE": "7.8931",
    "NAME": "HELGOLAND, GM",
    "PRCP": "67.0",
    "TAVG": "6.85"
  },
  {
    "STATION": "CA007094637",
    "DATE": "2018-12",
    "LATITUDE": "49.75",
    "LONGITUDE": "-77.8",
    "NAME": "MATAGAMI A, QC CA",
    "PRCP": "44.0",
    "TAVG": "-11.92"
  },
  {
    "STATION": "ASN00065103",
    "DATE": "2018-12",
    "LATITUDE": "-33.3627",
    "LONGITUDE": "147.9205",
    "NAME": "FORBES AIRPORT AWS, AS",
    "PRCP": "39.8",
    "TAVG": "25.44"
  },
  {
    "STATION": "USW00026451",
    "DATE": "2018-12",
    "LATITUDE": "61.169",
    "LONGITUDE": "-150.0278",
    "NAME": "ANCHORAGE TED STEVENS INTERNATIONAL AIRPORT, AK US",
    "PRCP": "61.7",
    "TAVG": "-3.50"
  },
  {
    "STATION": "USW00012904",
    "DATE": "2018-12",
    "LATITUDE": "26.22806",
    "LONGITUDE": "-97.65417",
    "NAME": "HARLINGEN RIO GRANDE VALLEY INTERNATIONAL AIRPORT, TX US",
    "PRCP": "24.5",
    "TAVG": "16.52"
  },
  {
    "STATION": "USW00023273",
    "DATE": "2018-12",
    "LATITUDE": "34.8994",
    "LONGITUDE": "-120.4486",
    "NAME": "SANTA MARIA PUBLIC AIRPORT, CA US",
    "PRCP": "23.7",
    "TAVG": "12.59"
  },
  {
    "STATION": "USS0022F45S",
    "DATE": "2018-12",
    "LATITUDE": "43.23",
    "LONGITUDE": "-122.43",
    "NAME": "TOKETEE AIRSTRIP, OR US",
    "PRCP": "185.2",
    "TAVG": "2.48"
  },
  {
    "STATION": "BLM00085109",
    "DATE": "2018-12",
    "LATITUDE": "-13.3",
    "LONGITUDE": "-64.7",
    "NAME": "SAN RAMON, BL",
    "PRCP": "",
    "TAVG": "27.00"
  },
  {
    "STATION": "USW00004141",
    "DATE": "2018-12",
    "LATITUDE": "43.2718",
    "LONGITUDE": "-124.3186",
    "NAME": "COOS BAY 8 SW, OR US",
    "PRCP": "214.0",
    "TAVG": "7.03"
  },
  {
    "STATION": "USS0020H02S",
    "DATE": "2018-12",
    "LATITUDE": "41.89",
    "LONGITUDE": "-120.75",
    "NAME": "CROWDER FLAT, CA US",
    "PRCP": "53.1",
    "TAVG": "-0.62"
  },
  {
    "STATION": "GME00131218",
    "DATE": "2018-12",
    "LATITUDE": "50.2",
    "LONGITUDE": "7.8656",
    "NAME": "NASTATTEN, GM",
    "PRCP": "83.4",
    "TAVG": "4.37"
  },
  {
    "STATION": "USS0021C40S",
    "DATE": "2018-12",
    "LATITUDE": "46.93",
    "LONGITUDE": "-121.95",
    "NAME": "MOWICH, WA US",
    "PRCP": "220.9",
    "TAVG": "3.55"
  },
  {
    "STATION": "SWE00138638",
    "DATE": "2018-12",
    "LATITUDE": "58.81",
    "LONGITUDE": "15.13",
    "NAME": "ZINKGRUVAN, SW",
    "PRCP": "51.6",
    "TAVG": "-0.68"
  },
  {
    "STATION": "USW00063870",
    "DATE": "2018-12",
    "LATITUDE": "31.0425",
    "LONGITUDE": "-86.31167",
    "NAME": "FLORALA MUNICIPAL AIRPORT, AL US",
    "PRCP": "187.3",
    "TAVG": "12.33"
  },
  {
    "STATION": "SIE00114856",
    "DATE": "2018-12",
    "LATITUDE": "45.6",
    "LONGITUDE": "15.2",
    "NAME": "CRNOMELJ DOBLICE, SI",
    "PRCP": "43.1",
    "TAVG": "2.66"
  },
  {
    "STATION": "FIE00141935",
    "DATE": "2018-12",
    "LATITUDE": "60.3867",
    "LONGITUDE": "22.5544",
    "NAME": "KAARINA YLTOINEN, FI",
    "PRCP": "53.3",
    "TAVG": "-1.54"
  },
  {
    "STATION": "USW00026492",
    "DATE": "2018-12",
    "LATITUDE": "60.785",
    "LONGITUDE": "-148.83889",
    "NAME": "PORTAGE GLACIER VISITOR CENTER, AK US",
    "PRCP": "452.3",
    "TAVG": "-0.75"
  },
  {
    "STATION": "CA007026734",
    "DATE": "2018-12",
    "LATITUDE": "45.2167",
    "LONGITUDE": "-73.2",
    "NAME": "SABREVOIS, QC CA",
    "PRCP": "114.2",
    "TAVG": "-4.82"
  },
  {
    "STATION": "VQW00011624",
    "DATE": "2018-12",
    "LATITUDE": "17.6997",
    "LONGITUDE": "-64.8125",
    "NAME": "CHRISTIANSTED HAMILTON FIELD AIRPORT, VI US",
    "PRCP": "50.7",
    "TAVG": "26.75"
  },
  {
    "STATION": "EN000026134",
    "DATE": "2018-12",
    "LATITUDE": "58.967",
    "LONGITUDE": "24.733",
    "NAME": "KUUSIKU, EN",
    "PRCP": "",
    "TAVG": "-1.93"
  },
  {
    "STATION": "SWE00139268",
    "DATE": "2018-12",
    "LATITUDE": "60.14",
    "LONGITUDE": "14.4",
    "NAME": "FREDRIKSBERG, SW",
    "PRCP": "61.2",
    "TAVG": "-3.90"
  },
  {
    "STATION": "SWE00138610",
    "DATE": "2018-12",
    "LATITUDE": "58.72",
    "LONGITUDE": "15.03",
    "NAME": "KETTSTAKA A, SW",
    "PRCP": "57.0",
    "TAVG": "-0.49"
  },
  {
    "STATION": "USW00063858",
    "DATE": "2018-12",
    "LATITUDE": "32.4567",
    "LONGITUDE": "-87.2422",
    "NAME": "SELMA 13 WNW, AL US",
    "PRCP": "275.2",
    "TAVG": "9.60"
  },
  {
    "STATION": "USS0015J09S",
    "DATE": "2018-12",
    "LATITUDE": "40.38",
    "LONGITUDE": "-115.53",
    "NAME": "GREEN MOUNTAIN, NV US",
    "PRCP": "104.0",
    "TAVG": "-2.70"
  },
  {
    "STATION": "CA006130257",
    "DATE": "2018-12",
    "LATITUDE": "42.1",
    "LONGITUDE": "-83.1",
    "NAME": "AMHERSTBURG, ON CA",
    "PRCP": "62.6",
    "TAVG": "1.27"
  },
  {
    "STATION": "USW00003160",
    "DATE": "2018-12",
    "LATITUDE": "36.6206",
    "LONGITUDE": "-116.0278",
    "NAME": "MERCURY DESERT ROCK AIRPORT, NV US",
    "PRCP": "12.4",
    "TAVG": "7.01"
  },
  {
    "STATION": "ASN00009998",
    "DATE": "2018-12",
    "LATITUDE": "-34.9469",
    "LONGITUDE": "116.7222",
    "NAME": "NORTH WALPOLE, AS",
    "PRCP": "42.8",
    "TAVG": "17.11"
  },
  {
    "STATION": "EN000026120",
    "DATE": "2018-12",
    "LATITUDE": "58.95",
    "LONGITUDE": "23.817",
    "NAME": "LAANE NIGULA, EN",
    "PRCP": "",
    "TAVG": "-1.25"
  },
  {
    "STATION": "SWE00140230",
    "DATE": "2018-12",
    "LATITUDE": "64.0",
    "LONGITUDE": "14.67",
    "NAME": "ALMDALEN, SW",
    "PRCP": "99.1",
    "TAVG": "-4.80"
  },
  {
    "STATION": "CA003036205",
    "DATE": "2018-12",
    "LATITUDE": "51.0333",
    "LONGITUDE": "-113.2833",
    "NAME": "STRATHMORE AGDM, AB CA",
    "PRCP": "",
    "TAVG": "-5.00"
  },
  {
    "STATION": "IN017060500",
    "DATE": "2018-12",
    "LATITUDE": "19.267",
    "LONGITUDE": "84.883",
    "NAME": "GOPALPUR, IN",
    "PRCP": "",
    "TAVG": "22.28"
  },
  {
    "STATION": "CA006017401",
    "DATE": "2018-12",
    "LATITUDE": "53.0667",
    "LONGITUDE": "-93.35",
    "NAME": "SANDY LAKE, ON CA",
    "PRCP": "0.2",
    "TAVG": "-14.50"
  },
  {
    "STATION": "CA001152850",
    "DATE": "2018-12",
    "LATITUDE": "49.4833",
    "LONGITUDE": "-115.0667",
    "NAME": "FERNIE, BC CA",
    "PRCP": "116.6",
    "TAVG": "-2.98"
  },
  {
    "STATION": "CA004012300",
    "DATE": "2018-12",
    "LATITUDE": "51.1833",
    "LONGITUDE": "-104.8667",
    "NAME": "DUVAL, SK CA",
    "PRCP": "9.4",
    "TAVG": "-7.91"
  },
  {
    "STATION": "FIE00142025",
    "DATE": "2018-12",
    "LATITUDE": "59.8439",
    "LONGITUDE": "23.2517",
    "NAME": "HANKO TVARMINNE, FI",
    "PRCP": "49.9",
    "TAVG": "-0.37"
  },
  {
    "STATION": "USW00014839",
    "DATE": "2018-12",
    "LATITUDE": "42.955",
    "LONGITUDE": "-87.9044",
    "NAME": "MILWAUKEE MITCHELL INTERNATIONAL AIRPORT, WI US",
    "PRCP": "61.3",
    "TAVG": "0.16"
  },
  {
    "STATION": "NOE00134682",
    "DATE": "2018-12",
    "LATITUDE": "64.4014",
    "LONGITUDE": "10.455",
    "NAME": "BUHOLMRASA FYR, NO",
    "PRCP": "",
    "TAVG": "3.00"
  },
  {
    "STATION": "USW00023065",
    "DATE": "2018-12",
    "LATITUDE": "39.3672",
    "LONGITUDE": "-101.6932",
    "NAME": "GOODLAND RENNER FIELD, KS US",
    "PRCP": "5.7",
    "TAVG": "0.38"
  },
  {
    "STATION": "USS0019L41S",
    "DATE": "2018-12",
    "LATITUDE": "38.72",
    "LONGITUDE": "-119.89",
    "NAME": "BURNSIDE LAKE, CA US",
    "PRCP": "81.2",
    "TAVG": "-2.98"
  },
  {
    "STATION": "USS0008G03S",
    "DATE": "2018-12",
    "LATITUDE": "42.57",
    "LONGITUDE": "-108.84",
    "NAME": "SOUTH PASS, WY US",
    "PRCP": "15.1",
    "TAVG": "-7.26"
  },
  {
    "STATION": "CA006142400",
    "DATE": "2018-12",
    "LATITUDE": "43.7333",
    "LONGITUDE": "-80.3333",
    "NAME": "FERGUS SHAND DAM, ON CA",
    "PRCP": "97.0",
    "TAVG": "-2.05"
  },
  {
    "STATION": "USS0010J30S",
    "DATE": "2018-12",
    "LATITUDE": "40.58",
    "LONGITUDE": "-110.59",
    "NAME": "BROWN DUCK, UT US",
    "PRCP": "40.6",
    "TAVG": "-7.82"
  },
  {
    "STATION": "IRM00040827",
    "DATE": "2018-12",
    "LATITUDE": "31.533",
    "LONGITUDE": "60.033",
    "NAME": "NEHBANDAN, IR",
    "PRCP": "0.0",
    "TAVG": "9.68"
  },
  {
    "STATION": "USW00094963",
    "DATE": "2018-12",
    "LATITUDE": "44.8321",
    "LONGITUDE": "-93.4705",
    "NAME": "MINNEAPOLIS FLYING CLOUD AIRPORT, MN US",
    "PRCP": "24.2",
    "TAVG": "-3.80"
  },
  {
    "STATION": "CA007080468",
    "DATE": "2018-12",
    "LATITUDE": "46.7167",
    "LONGITUDE": "-79.1",
    "NAME": "BARRAGE TEMISCAMINGUE, QC CA",
    "PRCP": "70.9",
    "TAVG": "-6.97"
  },
  {
    "STATION": "CA008402958",
    "DATE": "2018-12",
    "LATITUDE": "51.0667",
    "LONGITUDE": "-56.8833",
    "NAME": "PLUM POINT, NL CA",
    "PRCP": "109.6",
    "TAVG": "-5.81"
  },
  {
    "STATION": "CA001100119",
    "DATE": "2018-12",
    "LATITUDE": "49.25",
    "LONGITUDE": "-121.7667",
    "NAME": "AGASSIZ CS, BC CA",
    "PRCP": "225.4",
    "TAVG": "4.61"
  },
  {
    "STATION": "USW00094988",
    "DATE": "2018-12",
    "LATITUDE": "42.11056",
    "LONGITUDE": "-92.91611",
    "NAME": "MARSHALLTOWN MUNICIPAL AIRPORT, IA US",
    "PRCP": "55.6",
    "TAVG": "-1.79"
  },
  {
    "STATION": "USW00093981",
    "DATE": "2018-12",
    "LATITUDE": "37.23545",
    "LONGITUDE": "-93.40121",
    "NAME": "SPRINGFIELD WEATHER FORECAST OFFICE, MO US",
    "PRCP": "111.4",
    "TAVG": "3.60"
  },
  {
    "STATION": "CA003062697",
    "DATE": "2018-12",
    "LATITUDE": "56.65",
    "LONGITUDE": "-111.2167",
    "NAME": "FORT MCMURRAY, AB CA",
    "PRCP": "1.7",
    "TAVG": "-11.93"
  },
  {
    "STATION": "CA00114B1F0",
    "DATE": "2018-12",
    "LATITUDE": "49.0833",
    "LONGITUDE": "-116.5",
    "NAME": "CRESTON CAMPBELL SCIENTIFIC, BC CA",
    "PRCP": "52.6",
    "TAVG": "0.11"
  },
  {
    "STATION": "CA006105978",
    "DATE": "2018-12",
    "LATITUDE": "45.3833",
    "LONGITUDE": "-75.7167",
    "NAME": "OTTAWA CDA RCS, ON CA",
    "PRCP": "94.4",
    "TAVG": "-6.15"
  },
  {
    "STATION": "USW00093759",
    "DATE": "2018-12",
    "LATITUDE": "35.855",
    "LONGITUDE": "-77.89306",
    "NAME": "ROCKY MOUNT WILSON AIRPORT, NC US",
    "PRCP": "111.8",
    "TAVG": "8.07"
  },
  {
    "STATION": "CA008204800",
    "DATE": "2018-12",
    "LATITUDE": "44.7",
    "LONGITUDE": "-63.9",
    "NAME": "ST MARGARET S BAY, NS CA",
    "PRCP": "91.4",
    "TAVG": "-2.73"
  },
  {
    "STATION": "USS0049M26S",
    "DATE": "2018-12",
    "LATITUDE": "61.79",
    "LONGITUDE": "-149.28",
    "NAME": "INDEPENDENCE MINE, AK US",
    "PRCP": "103.8",
    "TAVG": "-5.59"
  },
  {
    "STATION": "USS0021C17S",
    "DATE": "2018-12",
    "LATITUDE": "46.91",
    "LONGITUDE": "-121.48",
    "NAME": "MORSE LAKE, WA US",
    "PRCP": "439.5",
    "TAVG": "-3.80"
  },
  {
    "STATION": "ASN00079099",
    "DATE": "2018-12",
    "LATITUDE": "-37.0222",
    "LONGITUDE": "141.2657",
    "NAME": "EDENHOPE AIRPORT, AS",
    "PRCP": "76.0",
    "TAVG": "20.76"
  },
  {
    "STATION": "CA001160H99",
    "DATE": "2018-12",
    "LATITUDE": "52.1333",
    "LONGITUDE": "-119.2833",
    "NAME": "BLUE RIVER CS, BC CA",
    "PRCP": "107.6",
    "TAVG": "-4.85"
  },
  {
    "STATION": "GME00131998",
    "DATE": "2018-12",
    "LATITUDE": "50.6208",
    "LONGITUDE": "13.4831",
    "NAME": "DEUTSCHNEUDORF BRUDERWIESE, GM",
    "PRCP": "138.4",
    "TAVG": "0.50"
  },
  {
    "STATION": "USS0006H22S",
    "DATE": "2018-12",
    "LATITUDE": "41.0",
    "LONGITUDE": "-106.91",
    "NAME": "WHISKEY PARK, WY US",
    "PRCP": "76.0",
    "TAVG": "-7.84"
  },
  {
    "STATION": "CA001152105",
    "DATE": "2018-12",
    "LATITUDE": "49.6167",
    "LONGITUDE": "-115.7833",
    "NAME": "CRANBROOK A, BC CA",
    "PRCP": "26.6",
    "TAVG": "-4.08"
  },
  {
    "STATION": "ASN00010007",
    "DATE": "2018-12",
    "LATITUDE": "-30.8081",
    "LONGITUDE": "117.8603",
    "NAME": "BENCUBBIN, AS",
    "PRCP": "43.4",
    "TAVG": "25.12"
  },
  {
    "STATION": "GME00131026",
    "DATE": "2018-12",
    "LATITUDE": "53.2153",
    "LONGITUDE": "10.4717",
    "NAME": "WENDISCH EVERN, GM",
    "PRCP": "73.5",
    "TAVG": "4.67"
  },
  {
    "STATION": "USW00093765",
    "DATE": "2018-12",
    "LATITUDE": "34.73258",
    "LONGITUDE": "-76.65659",
    "NAME": "BEAUFORT MICHAEL J SMITH FIELD, NC US",
    "PRCP": "97.1",
    "TAVG": "11.21"
  },
  {
    "STATION": "ASN00090175",
    "DATE": "2018-12",
    "LATITUDE": "-38.3906",
    "LONGITUDE": "142.2347",
    "NAME": "PORT FAIRY AWS, AS",
    "PRCP": "57.0",
    "TAVG": "17.10"
  },
  {
    "STATION": "ASN00009542",
    "DATE": "2018-12",
    "LATITUDE": "-33.6825",
    "LONGITUDE": "121.8275",
    "NAME": "ESPERANCE AERO, AS",
    "PRCP": "32.8",
    "TAVG": "20.00"
  },
  {
    "STATION": "CA008400801",
    "DATE": "2018-12",
    "LATITUDE": "47.6167",
    "LONGITUDE": "-57.6167",
    "NAME": "BURGEO NL, NL CA",
    "PRCP": "124.6",
    "TAVG": "-2.43"
  },
  {
    "STATION": "GME00102201",
    "DATE": "2018-12",
    "LATITUDE": "54.5294",
    "LONGITUDE": "11.0617",
    "NAME": "WESTERMARKELSDORF FEHMARN, GM",
    "PRCP": "55.2",
    "TAVG": "5.14"
  },
  {
    "STATION": "USS0010F30S",
    "DATE": "2018-12",
    "LATITUDE": "43.78",
    "LONGITUDE": "-110.93",
    "NAME": "GRAND TARGHEE, WY US",
    "PRCP": "93.8",
    "TAVG": "-8.39"
  },
  {
    "STATION": "GME00125866",
    "DATE": "2018-12",
    "LATITUDE": "51.7269",
    "LONGITUDE": "11.5125",
    "NAME": "MEHRINGEN, GM",
    "PRCP": "55.9",
    "TAVG": "4.95"
  },
  {
    "STATION": "CA002202351",
    "DATE": "2018-12",
    "LATITUDE": "63.6",
    "LONGITUDE": "-105.1333",
    "NAME": "HANBURY RIVER, NT CA",
    "PRCP": "4.1",
    "TAVG": "-22.64"
  },
  {
    "STATION": "USW00093822",
    "DATE": "2018-12",
    "LATITUDE": "39.8447",
    "LONGITUDE": "-89.6839",
    "NAME": "SPRINGFIELD ABRAHAM LINCOLN CAPITAL AIRPORT, IL US",
    "PRCP": "124.9",
    "TAVG": "1.56"
  },
  {
    "STATION": "CA001108380",
    "DATE": "2018-12",
    "LATITUDE": "49.1833",
    "LONGITUDE": "-123.1833",
    "NAME": "VANCOUVER SEA ISLAND CCG, BC CA",
    "PRCP": "227.7",
    "TAVG": "5.04"
  },
  {
    "STATION": "SWE00140350",
    "DATE": "2018-12",
    "LATITUDE": "64.5056",
    "LONGITUDE": "14.2239",
    "NAME": "GADDEDE A, SW",
    "PRCP": "53.2",
    "TAVG": "-5.51"
  },
  {
    "STATION": "USW00024130",
    "DATE": "2018-12",
    "LATITUDE": "44.8428",
    "LONGITUDE": "-117.8086",
    "NAME": "BAKER CITY AIRPORT, OR US",
    "PRCP": "16.2",
    "TAVG": "-1.43"
  },
  {
    "STATION": "USS0009S02S",
    "DATE": "2018-12",
    "LATITUDE": "33.92",
    "LONGITUDE": "-109.46",
    "NAME": "MAVERICK FORK, AZ US",
    "PRCP": "68.2",
    "TAVG": "-1.00"
  },
  {
    "STATION": "SPE00119999",
    "DATE": "2018-12",
    "LATITUDE": "39.95",
    "LONGITUDE": "0.0714",
    "NAME": "CASTELLON, SP",
    "PRCP": "9.2",
    "TAVG": "12.80"
  },
  {
    "STATION": "NOE00105503",
    "DATE": "2018-12",
    "LATITUDE": "60.5669",
    "LONGITUDE": "9.1333",
    "NAME": "NESBYEN TODOKK, NO",
    "PRCP": "52.3",
    "TAVG": "-7.05"
  },
  {
    "STATION": "CA003023740",
    "DATE": "2018-12",
    "LATITUDE": "52.55",
    "LONGITUDE": "-114.4667",
    "NAME": "LEEDALE AGDM, AB CA",
    "PRCP": "9.5",
    "TAVG": "-8.94"
  },
  {
    "STATION": "CA004026847",
    "DATE": "2018-12",
    "LATITUDE": "51.15",
    "LONGITUDE": "-107.2667",
    "NAME": "ROCK POINT, SK CA",
    "PRCP": "22.6",
    "TAVG": "-7.46"
  },
  {
    "STATION": "USS0015H24S",
    "DATE": "2018-12",
    "LATITUDE": "41.66",
    "LONGITUDE": "-115.32",
    "NAME": "DRAW CREEK, NV US",
    "PRCP": "63.6",
    "TAVG": "-4.26"
  },
  {
    "STATION": "USW00013978",
    "DATE": "2018-12",
    "LATITUDE": "33.4963",
    "LONGITUDE": "-90.0866",
    "NAME": "GREENWOOD LEFLORE AIRPORT, MS US",
    "PRCP": "124.3",
    "TAVG": "9.00"
  },
  {
    "STATION": "CA002301102",
    "DATE": "2018-12",
    "LATITUDE": "61.1333",
    "LONGITUDE": "-100.8833",
    "NAME": "ENNADAI LAKE AUT, NU CA",
    "PRCP": "4.5",
    "TAVG": "-22.12"
  },
  {
    "STATION": "CA003035650",
    "DATE": "2018-12",
    "LATITUDE": "50.8333",
    "LONGITUDE": "-112.05",
    "NAME": "ROSEMARY AGDM, AB CA",
    "PRCP": "7.4",
    "TAVG": "-6.67"
  },
  {
    "STATION": "USS0022F04S",
    "DATE": "2018-12",
    "LATITUDE": "43.61",
    "LONGITUDE": "-122.12",
    "NAME": "SALT CREEK FALLS, OR US",
    "PRCP": "296.9",
    "TAVG": "-0.03"
  },
  {
    "STATION": "USW00094817",
    "DATE": "2018-12",
    "LATITUDE": "42.665",
    "LONGITUDE": "-83.41806",
    "NAME": "PONTIAC OAKLAND CO INTERNATIONAL AIRPORT, MI US",
    "PRCP": "54.5",
    "TAVG": "-0.10"
  },
  {
    "STATION": "NOE00112080",
    "DATE": "2018-12",
    "LATITUDE": "69.3",
    "LONGITUDE": "16.1497",
    "NAME": "ANDOYA, NO",
    "PRCP": "81.9",
    "TAVG": "0.77"
  },
  {
    "STATION": "USS0006M21S",
    "DATE": "2018-12",
    "LATITUDE": "37.47",
    "LONGITUDE": "-106.54",
    "NAME": "GRAYBACK, CO US",
    "PRCP": "27.7",
    "TAVG": "-6.03"
  },
  {
    "STATION": "USW00014742",
    "DATE": "2018-12",
    "LATITUDE": "44.4683",
    "LONGITUDE": "-73.1499",
    "NAME": "BURLINGTON INTERNATIONAL AIRPORT, VT US",
    "PRCP": "72.1",
    "TAVG": "-2.82"
  },
  {
    "STATION": "SPE00156081",
    "DATE": "2018-12",
    "LATITUDE": "41.8306",
    "LONGITUDE": "1.8467",
    "NAME": "CASTELLNOU DE BAGES, SP",
    "PRCP": "7.0",
    "TAVG": "6.68"
  },
  {
    "STATION": "NO000005350",
    "DATE": "2018-12",
    "LATITUDE": "60.3883",
    "LONGITUDE": "11.5603",
    "NAME": "NORD ODAL, NO",
    "PRCP": "72.2",
    "TAVG": "-4.31"
  },
  {
    "STATION": "USW00094624",
    "DATE": "2018-12",
    "LATITUDE": "41.6875",
    "LONGITUDE": "-69.99333",
    "NAME": "CHATHAM MUNICIPAL AIRPORT, MA US",
    "PRCP": "113.2",
    "TAVG": "2.58"
  },
  {
    "STATION": "ASN00081124",
    "DATE": "2018-12",
    "LATITUDE": "-36.0294",
    "LONGITUDE": "146.0306",
    "NAME": "YARRAWONGA, AS",
    "PRCP": "92.0",
    "TAVG": "24.72"
  },
  {
    "STATION": "USW00004237",
    "DATE": "2018-12",
    "LATITUDE": "47.5139",
    "LONGITUDE": "-123.812",
    "NAME": "QUINAULT 4 NE, WA US",
    "PRCP": "838.9",
    "TAVG": "4.49"
  },
  {
    "STATION": "USW00013993",
    "DATE": "2018-12",
    "LATITUDE": "39.7736",
    "LONGITUDE": "-94.9233",
    "NAME": "ST JOSEPH ROSECRANS MEMORIAL AIRPORT, MO US",
    "PRCP": "67.5",
    "TAVG": "0.69"
  },
  {
    "STATION": "USW00004223",
    "DATE": "2018-12",
    "LATITUDE": "48.5405",
    "LONGITUDE": "-121.446",
    "NAME": "DARRINGTON 21 NNE, WA US",
    "PRCP": "388.4",
    "TAVG": "2.62"
  },
  {
    "STATION": "SWE00138228",
    "DATE": "2018-12",
    "LATITUDE": "57.77",
    "LONGITUDE": "13.47",
    "NAME": "ULRICEHAMN, SW",
    "PRCP": "56.2",
    "TAVG": "0.65"
  },
  {
    "STATION": "USW00013987",
    "DATE": "2018-12",
    "LATITUDE": "37.15221",
    "LONGITUDE": "-94.49527",
    "NAME": "JOPLIN REGIONAL AIRPORT, MO US",
    "PRCP": "68.4",
    "TAVG": "3.82"
  },
  {
    "STATION": "SWE00139888",
    "DATE": "2018-12",
    "LATITUDE": "62.76",
    "LONGITUDE": "13.85",
    "NAME": "BORTNAN A, SW",
    "PRCP": "46.6",
    "TAVG": "-6.75"
  },
  {
    "STATION": "SZE00105086",
    "DATE": "2018-12",
    "LATITUDE": "46.2167",
    "LONGITUDE": "7.3331",
    "NAME": "SION 2, SZ",
    "PRCP": "110.7",
    "TAVG": "3.12"
  },
  {
    "STATION": "USW00014756",
    "DATE": "2018-12",
    "LATITUDE": "41.25306",
    "LONGITUDE": "-70.06083",
    "NAME": "NANTUCKET MEMORIAL AIRPORT, MA US",
    "PRCP": "83.8",
    "TAVG": "2.75"
  },
  {
    "STATION": "CA003013640",
    "DATE": "2018-12",
    "LATITUDE": "52.85",
    "LONGITUDE": "-111.8667",
    "NAME": "KILLAM AGDM, AB CA",
    "PRCP": "",
    "TAVG": "-8.74"
  },
  {
    "STATION": "USS0005P08S",
    "DATE": "2018-12",
    "LATITUDE": "35.78",
    "LONGITUDE": "-105.54",
    "NAME": "WESNER SPRINGS, NM US",
    "PRCP": "81.2",
    "TAVG": "-3.90"
  },
  {
    "STATION": "CA001035940",
    "DATE": "2018-12",
    "LATITUDE": "48.7167",
    "LONGITUDE": "-125.1",
    "NAME": "PACHENA POINT, BC CA",
    "PRCP": "397.4",
    "TAVG": "5.56"
  },
  {
    "STATION": "SZ000008440",
    "DATE": "2018-12",
    "LATITUDE": "46.25",
    "LONGITUDE": "6.1331",
    "NAME": "GENEVE COINTRIN, SZ",
    "PRCP": "112.4",
    "TAVG": "4.70"
  },
  {
    "STATION": "CA006166415",
    "DATE": "2018-12",
    "LATITUDE": "44.2333",
    "LONGITUDE": "-78.3667",
    "NAME": "PETERBOROUGH, ON CA",
    "PRCP": "55.4",
    "TAVG": "-2.78"
  },
  {
    "STATION": "ASN00090015",
    "DATE": "2018-12",
    "LATITUDE": "-38.8556",
    "LONGITUDE": "143.5128",
    "NAME": "CAPE OTWAY LIGHTHOUSE, AS",
    "PRCP": "45.0",
    "TAVG": "17.55"
  },
  {
    "STATION": "USS0005N18S",
    "DATE": "2018-12",
    "LATITUDE": "36.19",
    "LONGITUDE": "-105.56",
    "NAME": "GALLEGOS PEAK, NM US",
    "PRCP": "55.6",
    "TAVG": "-2.88"
  },
  {
    "STATION": "ASN00004106",
    "DATE": "2018-12",
    "LATITUDE": "-21.1756",
    "LONGITUDE": "119.7497",
    "NAME": "MARBLE BAR, AS",
    "PRCP": "1.6",
    "TAVG": "35.39"
  },
  {
    "STATION": "GME00130258",
    "DATE": "2018-12",
    "LATITUDE": "50.1331",
    "LONGITUDE": "8.3178",
    "NAME": "WIESBADEN AURINGEN, GM",
    "PRCP": "108.0",
    "TAVG": "3.66"
  },
  {
    "STATION": "GME00131146",
    "DATE": "2018-12",
    "LATITUDE": "52.9553",
    "LONGITUDE": "7.3192",
    "NAME": "DORPEN, GM",
    "PRCP": "82.1",
    "TAVG": "5.65"
  },
  {
    "STATION": "NOE00134286",
    "DATE": "2018-12",
    "LATITUDE": "59.5869",
    "LONGITUDE": "11.1658",
    "NAME": "ASKIM II, NO",
    "PRCP": "90.0",
    "TAVG": "-2.32"
  },
  {
    "STATION": "SPE00155991",
    "DATE": "2018-12",
    "LATITUDE": "41.3839",
    "LONGITUDE": "2.1675",
    "NAME": "BARCELONA EL RAVAL, SP",
    "PRCP": "4.6",
    "TAVG": "13.56"
  },
  {
    "STATION": "ASN00015590",
    "DATE": "2018-12",
    "LATITUDE": "-23.7951",
    "LONGITUDE": "133.889",
    "NAME": "ALICE SPRINGS AIRPORT, AS",
    "PRCP": "2.4",
    "TAVG": "30.26"
  },
  {
    "STATION": "SWE00140634",
    "DATE": "2018-12",
    "LATITUDE": "65.8797",
    "LONGITUDE": "20.13",
    "NAME": "VIDSEL, SW",
    "PRCP": "53.9",
    "TAVG": "-9.34"
  },
  {
    "STATION": "NLE00152484",
    "DATE": "2018-12",
    "LATITUDE": "51.5256",
    "LONGITUDE": "3.8833",
    "NAME": "WILHELMINADORP, NL",
    "PRCP": "90.9",
    "TAVG": "6.58"
  },
  {
    "STATION": "CA007060826",
    "DATE": "2018-12",
    "LATITUDE": "50.7333",
    "LONGITUDE": "-71.0167",
    "NAME": "BONNARD 1, QC CA",
    "PRCP": "25.7",
    "TAVG": "-15.29"
  },
  {
    "STATION": "USS0008T01S",
    "DATE": "2018-12",
    "LATITUDE": "32.92",
    "LONGITUDE": "-108.15",
    "NAME": "SIGNAL PEAK, NM US",
    "PRCP": "45.5",
    "TAVG": "2.73"
  },
  {
    "STATION": "NOE00109885",
    "DATE": "2018-12",
    "LATITUDE": "59.8558",
    "LONGITUDE": "10.4367",
    "NAME": "ASKER, NO",
    "PRCP": "85.4",
    "TAVG": "-1.71"
  },
  {
    "STATION": "USW00021504",
    "DATE": "2018-12",
    "LATITUDE": "19.7191",
    "LONGITUDE": "-155.053",
    "NAME": "HILO INTERNATIONAL AIRPORT 87, HI US",
    "PRCP": "253.2",
    "TAVG": "22.95"
  },
  {
    "STATION": "USS0009E03S",
    "DATE": "2018-12",
    "LATITUDE": "44.03",
    "LONGITUDE": "-109.18",
    "NAME": "TIMBER CREEK, WY US",
    "PRCP": "17.7",
    "TAVG": "-5.59"
  },
  {
    "STATION": "SWE00137494",
    "DATE": "2018-12",
    "LATITUDE": "55.38",
    "LONGITUDE": "12.82",
    "NAME": "FALSTERBO, SW",
    "PRCP": "53.7",
    "TAVG": "4.47"
  },
  {
    "STATION": "USS0010G22S",
    "DATE": "2018-12",
    "LATITUDE": "42.3",
    "LONGITUDE": "-110.68",
    "NAME": "INDIAN CREEK, WY US",
    "PRCP": "53.2",
    "TAVG": "-8.13"
  },
  {
    "STATION": "NLE00152490",
    "DATE": "2018-12",
    "LATITUDE": "51.9606",
    "LONGITUDE": "4.4467",
    "NAME": "ROTTERDAM, NL",
    "PRCP": "93.7",
    "TAVG": "6.29"
  },
  {
    "STATION": "USS0019E03S",
    "DATE": "2018-12",
    "LATITUDE": "44.45",
    "LONGITUDE": "-119.93",
    "NAME": "DERR., OR US",
    "PRCP": "78.6",
    "TAVG": "-2.76"
  },
  {
    "STATION": "USS0015F09S",
    "DATE": "2018-12",
    "LATITUDE": "43.27",
    "LONGITUDE": "-115.35",
    "NAME": "CAMAS CREEK DIVIDE, ID US",
    "PRCP": "55.9",
    "TAVG": "-3.65"
  },
  {
    "STATION": "ASN00011053",
    "DATE": "2018-12",
    "LATITUDE": "-32.2028",
    "LONGITUDE": "127.5297",
    "NAME": "RED ROCKS POINT, AS",
    "PRCP": "5.8",
    "TAVG": "20.60"
  },
  {
    "STATION": "CA001106178",
    "DATE": "2018-12",
    "LATITUDE": "49.2",
    "LONGITUDE": "-122.6833",
    "NAME": "PITT MEADOWS CS, BC CA",
    "PRCP": "337.0",
    "TAVG": "4.52"
  },
  {
    "STATION": "ASN00005026",
    "DATE": "2018-12",
    "LATITUDE": "-22.2425",
    "LONGITUDE": "118.3358",
    "NAME": "WITTENOOM, AS",
    "PRCP": "0.4",
    "TAVG": "34.53"
  },
  {
    "STATION": "ASN00087031",
    "DATE": "2018-12",
    "LATITUDE": "-37.8565",
    "LONGITUDE": "144.7566",
    "NAME": "LAVERTON RAAF, AS",
    "PRCP": "100.6",
    "TAVG": "20.28"
  },
  {
    "STATION": "FIE00141855",
    "DATE": "2018-12",
    "LATITUDE": "60.1781",
    "LONGITUDE": "19.9894",
    "NAME": "JOMALA JOMALABY, FI",
    "PRCP": "72.1",
    "TAVG": "0.56"
  },
  {
    "STATION": "CA006139449",
    "DATE": "2018-12",
    "LATITUDE": "42.9667",
    "LONGITUDE": "-79.3333",
    "NAME": "WELLAND PELHAM, ON CA",
    "PRCP": "69.7",
    "TAVG": "0.24"
  },