[
  {
    "STATION": "USC00264349",
    "DATE": "2018-06",
    "LATITUDE": "39.4688",
    "LONGITUDE": "-119.0644",
    "NAME": "LAHONTAN DAM, NV US",
    "PRCP": "0.0",
    "TAVG": "23.60"
  },
  {
    "STATION": "USW00003822",
    "DATE": "2018-06",
    "LATITUDE": "32.13133",
    "LONGITUDE": "-81.20237",
    "NAME": "SAVANNAH INTERNATIONAL AIRPORT, GA US",
    "PRCP": "65.4",
    "TAVG": "27.83"
  },
  {
    "STATION": "MLM00061233",
    "DATE": "2018-06",
    "LATITUDE": "15.167",
    "LONGITUDE": "-7.283",
    "NAME": "NARA KEIBANE, ML",
    "PRCP": "",
    "TAVG": "35.68"
  },
  {
    "STATION": "TUM00017084",
    "DATE": "2018-06",
    "LATITUDE": "40.55",
    "LONGITUDE": "34.95",
    "NAME": "CORUM, TU",
    "PRCP": "28.0",
    "TAVG": "20.35"
  },
  {
    "STATION": "USC00412084",
    "DATE": "2018-06",
    "LATITUDE": "31.67278",
    "LONGITUDE": "-102.41333",
    "NAME": "CRANE 10 N, TX US",
    "PRCP": "112.2",
    "TAVG": "29.05"
  },
  {
    "STATION": "USC00046144",
    "DATE": "2018-06",
    "LATITUDE": "37.5147",
    "LONGITUDE": "-122.0325",
    "NAME": "NEWARK, CA US",
    "PRCP": "0.0",
    "TAVG": "18.64"
  },
  {
    "STATION": "RMC00914487",
    "DATE": "2018-06",
    "LATITUDE": "6.08333",
    "LONGITUDE": "171.73333",
    "NAME": "MILI, MH RM",
    "PRCP": "482.1",
    "TAVG": "28.40"
  },
  {
    "STATION": "USC00263340",
    "DATE": "2018-06",
    "LATITUDE": "39.0055",
    "LONGITUDE": "-114.2205",
    "NAME": "GREAT BASIN NATIONAL PARK, NV US",
    "PRCP": "0.0",
    "TAVG": "18.46"
  },
  {
    "STATION": "ASN00061366",
    "DATE": "2018-06",
    "LATITUDE": "-33.2815",
    "LONGITUDE": "151.5766",
    "NAME": "NORAH HEAD AWS, AS",
    "PRCP": "382.8",
    "TAVG": "14.16"
  },
  {
    "STATION": "USW00023258",
    "DATE": "2018-06",
    "LATITUDE": "37.6241",
    "LONGITUDE": "-120.9505",
    "NAME": "MODESTO CITY CO AIRPORT, CA US",
    "PRCP": "0.0",
    "TAVG": "24.32"
  },
  {
    "STATION": "USC00462211",
    "DATE": "2018-06",
    "LATITUDE": "39.098",
    "LONGITUDE": "-79.4322",
    "NAME": "DAVIS 3 SE, WV US",
    "PRCP": "245.7",
    "TAVG": "17.27"
  },
  {
    "STATION": "USC00040521",
    "DATE": "2018-06",
    "LATITUDE": "34.8927",
    "LONGITUDE": "-117.0219",
    "NAME": "BARSTOW, CA US",
    "PRCP": "0.0",
    "TAVG": "27.85"
  },
  {
    "STATION": "USC00366238",
    "DATE": "2018-06",
    "LATITUDE": "40.075",
    "LONGITUDE": "-76.0717",
    "NAME": "NEW HOLLAND 2 SE, PA US",
    "PRCP": "95.8",
    "TAVG": "21.47"
  },
  {
    "STATION": "KZ000035953",
    "DATE": "2018-06",
    "LATITUDE": "45.5",
    "LONGITUDE": "64.083",
    "NAME": "DZHUSALY, KZ",
    "PRCP": "",
    "TAVG": "24.07"
  },
  {
    "STATION": "USC00157049",
    "DATE": "2018-06",
    "LATITUDE": "36.855",
    "LONGITUDE": "-86.8883",
    "NAME": "RUSSELLVILLE, KY US",
    "PRCP": "186.3",
    "TAVG": "25.61"
  },
  {
    "STATION": "USC00207188",
    "DATE": "2018-06",
    "LATITUDE": "46.19076",
    "LONGITUDE": "-84.50852",
    "NAME": "RUDYARD 5 SE, MI US",
    "PRCP": "42.4",
    "TAVG": "14.41"
  },
  {
    "STATION": "USC00358498",
    "DATE": "2018-06",
    "LATITUDE": "45.4294",
    "LONGITUDE": "-123.7619",
    "NAME": "TILLAMOOK 6 SE, OR US",
    "PRCP": "57.1",
    "TAVG": "13.93"
  },
  {
    "STATION": "ASN00014909",
    "DATE": "2018-06",
    "LATITUDE": "-13.3275",
    "LONGITUDE": "133.0861",
    "NAME": "CENTRAL ARNHEM PLATEAU, AS",
    "PRCP": "0.0",
    "TAVG": "23.06"
  },
  {
    "STATION": "USC00059058",
    "DATE": "2018-06",
    "LATITUDE": "38.90264",
    "LONGITUDE": "-103.0192",
    "NAME": "WILD HORSE 6 N, CO US",
    "PRCP": "39.4",
    "TAVG": "23.08"
  },
  {
    "STATION": "MAM00067023",
    "DATE": "2018-06",
    "LATITUDE": "-14.279",
    "LONGITUDE": "50.175",
    "NAME": "SAMBAVA, MA",
    "PRCP": "",
    "TAVG": "24.41"
  },
  {
    "STATION": "USC00188371",
    "DATE": "2018-06",
    "LATITUDE": "39.66346",
    "LONGITUDE": "-77.58309",
    "NAME": "SMITHSBURG 2 NW, MD US",
    "PRCP": "125.5",
    "TAVG": "20.39"
  },
  {
    "STATION": "USS0011J46S",
    "DATE": "2018-06",
    "LATITUDE": "40.61",
    "LONGITUDE": "-111.1",
    "NAME": "BEAVER DIVIDE, UT US",
    "PRCP": "0.0",
    "TAVG": "13.62"
  },
  {
    "STATION": "SF000782270",
    "DATE": "2018-06",
    "LATITUDE": "-32.783",
    "LONGITUDE": "26.633",
    "NAME": "FORT BEAUFORT, SF",
    "PRCP": "",
    "TAVG": "15.55"
  },
  {
    "STATION": "USW00063898",
    "DATE": "2018-06",
    "LATITUDE": "38.8882",
    "LONGITUDE": "-86.5707",
    "NAME": "BEDFORD 5 WNW, IN US",
    "PRCP": "221.5",
    "TAVG": "23.48"
  },
  {
    "STATION": "USW00004803",
    "DATE": "2018-06",
    "LATITUDE": "45.6314",
    "LONGITUDE": "-89.4823",
    "NAME": "RHINELANDER ONEIDA CO AIRPORT, WI US",
    "PRCP": "158.7",
    "TAVG": "19.32"
  },
  {
    "STATION": "USC00419847",
    "DATE": "2018-06",
    "LATITUDE": "32.0444",
    "LONGITUDE": "-100.1078",
    "NAME": "WINGATE, TX US",
    "PRCP": "55.4",
    "TAVG": "28.64"
  },
  {
    "STATION": "USC00215598",
    "DATE": "2018-06",
    "LATITUDE": "46.4378",
    "LONGITUDE": "-92.7578",
    "NAME": "MOOSE LAKE 1 SSE, MN US",
    "PRCP": "225.7",
    "TAVG": "16.64"
  },
  {
    "STATION": "USC00326620",
    "DATE": "2018-06",
    "LATITUDE": "46.1458",
    "LONGITUDE": "-98.0919",
    "NAME": "OAKES, ND US",
    "PRCP": "100.7",
    "TAVG": "21.42"
  },
  {
    "STATION": "USS0005J05S",
    "DATE": "2018-06",
    "LATITUDE": "40.2",
    "LONGITUDE": "-105.6",
    "NAME": "WILD BASIN, CO US",
    "PRCP": "25.4",
    "TAVG": "14.35"
  },
  {
    "STATION": "USW00012907",
    "DATE": "2018-06",
    "LATITUDE": "27.53333",
    "LONGITUDE": "-99.46667",
    "NAME": "LAREDO INTERNATIONAL AIRPORT, TX US",
    "PRCP": "8.6",
    "TAVG": "31.79"
  },
  {
    "STATION": "GME00123838",
    "DATE": "2018-06",
    "LATITUDE": "50.5917",
    "LONGITUDE": "12.7156",
    "NAME": "AUE, GM",
    "PRCP": "35.6",
    "TAVG": "17.09"
  },
  {
    "STATION": "USS0015C06S",
    "DATE": "2018-06",
    "LATITUDE": "46.48",
    "LONGITUDE": "-115.63",
    "NAME": "HEMLOCK BUTTE, ID US",
    "PRCP": "104.0",
    "TAVG": "10.45"
  },
  {
    "STATION": "USC00465224",
    "DATE": "2018-06",
    "LATITUDE": "37.8566",
    "LONGITUDE": "-80.4042",
    "NAME": "LEWISBURG 3 N, WV US",
    "PRCP": "123.6",
    "TAVG": "20.42"
  },
  {
    "STATION": "USW00026491",
    "DATE": "2018-06",
    "LATITUDE": "61.17806",
    "LONGITUDE": "-149.96639",
    "NAME": "ANCHORAGE LAKE HOOD SEA PLANE BASE, AK US",
    "PRCP": "32.4",
    "TAVG": "14.12"
  },
  {
    "STATION": "SPE00156486",
    "DATE": "2018-06",
    "LATITUDE": "41.5656",
    "LONGITUDE": "2.0692",
    "NAME": "SABADELL PARC AGRARI, SP",
    "PRCP": "70.5",
    "TAVG": "21.28"
  },
  {
    "STATION": "USW00024286",
    "DATE": "2018-06",
    "LATITUDE": "41.78028",
    "LONGITUDE": "-124.23667",
    "NAME": "CRESCENT CITY MCNAMARA AIRPORT, CA US",
    "PRCP": "17.8",
    "TAVG": "12.62"
  },
  {
    "STATION": "SWE00140958",
    "DATE": "2018-06",
    "LATITUDE": "68.44",
    "LONGITUDE": "22.45",
    "NAME": "KARESUANDO A, SW",
    "PRCP": "82.5",
    "TAVG": "8.93"
  },
  {
    "STATION": "USC00203477",
    "DATE": "2018-06",
    "LATITUDE": "42.4077",
    "LONGITUDE": "-82.8891",
    "NAME": "GROSSE POINTE FARMS, MI US",
    "PRCP": "95.2",
    "TAVG": "20.05"
  },
  {
    "STATION": "GME00128038",
    "DATE": "2018-06",
    "LATITUDE": "49.6478",
    "LONGITUDE": "7.8842",
    "NAME": "RUPPERTSECKEN, GM",
    "PRCP": "28.4",
    "TAVG": "18.01"
  },
  {
    "STATION": "USC00176722",
    "DATE": "2018-06",
    "LATITUDE": "45.8909",
    "LONGITUDE": "-69.9646",
    "NAME": "PITTSTON FARMS NEPP, ME US",
    "PRCP": "117.2",
    "TAVG": "14.26"
  },
  {
    "STATION": "NOE00134454",
    "DATE": "2018-06",
    "LATITUDE": "61.2928",
    "LONGITUDE": "5.0442",
    "NAME": "FURENESET, NO",
    "PRCP": "86.0",
    "TAVG": "12.97"
  },
  {
    "STATION": "USW00063867",
    "DATE": "2018-06",
    "LATITUDE": "34.1954",
    "LONGITUDE": "-86.7963",
    "NAME": "CULLMAN 3 ENE, AL US",
    "PRCP": "115.6",
    "TAVG": "24.71"
  },
  {
    "STATION": "USC00341644",
    "DATE": "2018-06",
    "LATITUDE": "34.60889",
    "LONGITUDE": "-96.33306",
    "NAME": "CENTRAHOMA 1 E MESONET, OK US",
    "PRCP": "87.7",
    "TAVG": "27.10"
  },
  {
    "STATION": "USC00267697",
    "DATE": "2018-06",
    "LATITUDE": "39.5558",
    "LONGITUDE": "-119.7333",
    "NAME": "SPARKS, NV US",
    "PRCP": "5.0",
    "TAVG": "20.17"
  },
  {
    "STATION": "USW00096408",
    "DATE": "2018-06",
    "LATITUDE": "63.452",
    "LONGITUDE": "-150.8747",
    "NAME": "DENALI 27 N, AK US",
    "PRCP": "86.4",
    "TAVG": "10.92"
  },
  {
    "STATION": "ASN00048079",
    "DATE": "2018-06",
    "LATITUDE": "-29.7029",
    "LONGITUDE": "144.1482",
    "NAME": "WANAARING POST OFFICE, AS",
    "PRCP": "1.0",
    "TAVG": "11.78"
  },
  {
    "STATION": "USS0020B24S",
    "DATE": "2018-06",
    "LATITUDE": "47.99",
    "LONGITUDE": "-120.57",
    "NAME": "POPE RIDGE, WA US",
    "PRCP": "10.1",
    "TAVG": "13.57"
  },
  {
    "STATION": "USC00033242",
    "DATE": "2018-06",
    "LATITUDE": "34.5211",
    "LONGITUDE": "-90.5899",
    "NAME": "HELENA, AR US",
    "PRCP": "50.8",
    "TAVG": "27.49"
  },
  {
    "STATION": "USC00365902",
    "DATE": "2018-06",
    "LATITUDE": "40.6474",
    "LONGITUDE": "-80.3861",
    "NAME": "MONTGOMERY LOCK AND DAM, PA US",
    "PRCP": "139.0",
    "TAVG": "20.43"
  },
  {
    "STATION": "USC00454748",
    "DATE": "2018-06",
    "LATITUDE": "46.3675",
    "LONGITUDE": "-124.0377",
    "NAME": "LONG BEACH EXPERIMENT STATION, WA US",
    "PRCP": "81.7",
    "TAVG": "13.88"
  },
  {
    "STATION": "USC00451630",
    "DATE": "2018-06",
    "LATITUDE": "48.56784",
    "LONGITUDE": "-117.93545",
    "NAME": "COLVILLE, WA US",
    "PRCP": "44.1",
    "TAVG": "16.70"
  },
  {
    "STATION": "SWE00137534",
    "DATE": "2018-06",
    "LATITUDE": "55.5714",
    "LONGITUDE": "13.0731",
    "NAME": "MALMO A, SW",
    "PRCP": "17.3",
    "TAVG": "18.30"
  },
  {
    "STATION": "USS0020K27S",
    "DATE": "2018-06",
    "LATITUDE": "39.17",
    "LONGITUDE": "-120.15",
    "NAME": "TAHOE CITY CROSS, CA US",
    "PRCP": "0.0",
    "TAVG": "13.80"
  },
  {
    "STATION": "USS0021D35S",
    "DATE": "2018-06",
    "LATITUDE": "45.25",
    "LONGITUDE": "-121.74",
    "NAME": "MUD RIDGE, OR US",
    "PRCP": "25.3",
    "TAVG": "11.21"
  },
  {
    "STATION": "USW00003177",
    "DATE": "2018-06",
    "LATITUDE": "33.12806",
    "LONGITUDE": "-117.27944",
    "NAME": "CARLSBAD MCCLELLAN PALOMAR AIRPORT, CA US",
    "PRCP": "0.0",
    "TAVG": "18.23"
  },
  {
    "STATION": "USC00481175",
    "DATE": "2018-06",
    "LATITUDE": "44.50747",
    "LONGITUDE": "-109.16745",
    "NAME": "BUFFALO BILL DAM, WY US",
    "PRCP": "52.4",
    "TAVG": "17.40"
  },
  {
    "STATION": "USC00163313",
    "DATE": "2018-06",
    "LATITUDE": "29.8233",
    "LONGITUDE": "-91.5441",
    "NAME": "FRANKLIN 3 NW, LA US",
    "PRCP": "108.0",
    "TAVG": "27.24"
  },
  {
    "STATION": "USC00032148",
    "DATE": "2018-06",
    "LATITUDE": "33.88852",
    "LONGITUDE": "-91.53161",
    "NAME": "DUMAS, AR US",
    "PRCP": "",
    "TAVG": "27.97"
  },
  {
    "STATION": "USC00170409",
    "DATE": "2018-06",
    "LATITUDE": "43.9316",
    "LONGITUDE": "-69.8564",
    "NAME": "BATH, ME US",
    "PRCP": "85.9",
    "TAVG": "15.63"
  },
  {
    "STATION": "USS0006J15S",
    "DATE": "2018-06",
    "LATITUDE": "40.85",
    "LONGITUDE": "-106.97",
    "NAME": "ELK RIVER, CO US",
    "PRCP": "7.5",
    "TAVG": "14.36"
  },
  {
    "STATION": "USC00291883",
    "DATE": "2018-06",
    "LATITUDE": "36.4594",
    "LONGITUDE": "-103.1997",
    "NAME": "CLAYTON 1 N, NM US",
    "PRCP": "22.2",
    "TAVG": "22.69"
  },
  {
    "STATION": "USC00054742",
    "DATE": "2018-06",
    "LATITUDE": "38.9075",
    "LONGITUDE": "-105.4705",
    "NAME": "LAKE GEORGE 8 SW, CO US",
    "PRCP": "10.4",
    "TAVG": "15.52"
  },
  {
    "STATION": "ASN00003093",
    "DATE": "2018-06",
    "LATITUDE": "-18.1814",
    "LONGITUDE": "125.5619",
    "NAME": "FITZROY CROSSING AERO, AS",
    "PRCP": "0.0",
    "TAVG": "21.80"
  },
  {
    "STATION": "ASN00023343",
    "DATE": "2018-06",
    "LATITUDE": "-34.5519",
    "LONGITUDE": "138.8342",
    "NAME": "ROSEDALE TURRETFIELD RESEARCH, AS",
    "PRCP": "35.4",
    "TAVG": "10.03"
  },
  {
    "STATION": "ASN00064008",
    "DATE": "2018-06",
    "LATITUDE": "-31.2712",
    "LONGITUDE": "149.2714",
    "NAME": "COONABARABRAN NAMOI STREET, AS",
    "PRCP": "22.9",
    "TAVG": "8.83"
  },
  {
    "STATION": "USC00506581",
    "DATE": "2018-06",
    "LATITUDE": "64.7581",
    "LONGITUDE": "-147.3253",
    "NAME": "NORTH POLE, AK US",
    "PRCP": "19.3",
    "TAVG": "13.22"
  },
  {
    "STATION": "USC00426123",
    "DATE": "2018-06",
    "LATITUDE": "40.4178",
    "LONGITUDE": "-110.0511",
    "NAME": "NEOLA, UT US",
    "PRCP": "1.6",
    "TAVG": "19.81"
  },
  {
    "STATION": "GME00102404",
    "DATE": "2018-06",
    "LATITUDE": "47.6781",
    "LONGITUDE": "9.1908",
    "NAME": "KONSTANZ, GM",
    "PRCP": "61.8",
    "TAVG": "20.25"
  },
  {
    "STATION": "USC00351682",
    "DATE": "2018-06",
    "LATITUDE": "45.205",
    "LONGITUDE": "-123.8925",
    "NAME": "CLOVERDALE, OR US",
    "PRCP": "61.2",
    "TAVG": "14.34"
  },
  {
    "STATION": "USW00013833",
    "DATE": "2018-06",
    "LATITUDE": "31.28194",
    "LONGITUDE": "-89.25306",
    "NAME": "HATTIESBURG CHAIN MUNICIPAL AIRPORT, MS US",
    "PRCP": "87.6",
    "TAVG": "27.78"
  },
  {
    "STATION": "TUM00017292",
    "DATE": "2018-06",
    "LATITUDE": "37.217",
    "LONGITUDE": "28.367",
    "NAME": "MUGLA, TU",
    "PRCP": "88.2",
    "TAVG": "22.44"
  },
  {
    "STATION": "USC00044223",
    "DATE": "2018-06",
    "LATITUDE": "32.8488",
    "LONGITUDE": "-115.5666",
    "NAME": "IMPERIAL, CA US",
    "PRCP": "0.0",
    "TAVG": "29.97"
  },
  {
    "STATION": "USS0015B14S",
    "DATE": "2018-06",
    "LATITUDE": "47.07",
    "LONGITUDE": "-115.96",
    "NAME": "LOST LAKE, ID US",
    "PRCP": "50.7",
    "TAVG": "9.31"
  },
  {
    "STATION": "SPE00156135",
    "DATE": "2018-06",
    "LATITUDE": "42.3858",
    "LONGITUDE": "1.8664",
    "NAME": "DAS AERODROM, SP",
    "PRCP": "81.8",
    "TAVG": "16.05"
  },
  {
    "STATION": "USC00114400",
    "DATE": "2018-06",
    "LATITUDE": "38.49321",
    "LONGITUDE": "-88.97073",
    "NAME": "IUKA 12 SW, IL US",
    "PRCP": "189.3",
    "TAVG": "24.54"
  },
  {
    "STATION": "ASN00022049",
    "DATE": "2018-06",
    "LATITUDE": "-35.2795",
    "LONGITUDE": "136.9392",
    "NAME": "STENHOUSE BAY, AS",
    "PRCP": "55.2",
    "TAVG": "12.80"
  },
  {
    "STATION": "USW00094790",
    "DATE": "2018-06",
    "LATITUDE": "43.98867",
    "LONGITUDE": "-76.02623",
    "NAME": "WATERTOWN AIRPORT, NY US",
    "PRCP": "80.3",
    "TAVG": "17.10"
  },
  {
    "STATION": "USC00286864",
    "DATE": "2018-06",
    "LATITUDE": "39.96617",
    "LONGITUDE": "-75.02186",
    "NAME": "PENNSAUKEN 1 N, NJ US",
    "PRCP": "190.5",
    "TAVG": "21.32"
  },
  {
    "STATION": "USC00416792",
    "DATE": "2018-06",
    "LATITUDE": "29.3273",
    "LONGITUDE": "-103.2062",
    "NAME": "PANTHER JUNCTION, TX US",
    "PRCP": "86.5",
    "TAVG": "28.50"
  },
  {
    "STATION": "GME00131794",
    "DATE": "2018-06",
    "LATITUDE": "52.0106",
    "LONGITUDE": "10.3956",
    "NAME": "LIEBENBURG OTHFRESEN, GM",
    "PRCP": "21.1",
    "TAVG": "17.63"
  },
  {
    "STATION": "USW00094960",
    "DATE": "2018-06",
    "LATITUDE": "45.0622",
    "LONGITUDE": "-93.351",
    "NAME": "MINNEAPOLIS CRYSTAL AIRPORT, MN US",
    "PRCP": "107.0",
    "TAVG": "21.92"
  },
  {
    "STATION": "USC00210190",
    "DATE": "2018-06",
    "LATITUDE": "45.2534",
    "LONGITUDE": "-93.2927",
    "NAME": "ANDOVER 1 N, MN US",
    "PRCP": "127.0",
    "TAVG": "20.79"
  },
  {
    "STATION": "USW00014806",
    "DATE": "2018-06",
    "LATITUDE": "40.3131",
    "LONGITUDE": "-88.1596",
    "NAME": "RANTOUL, IL US",
    "PRCP": "155.1",
    "TAVG": "24.17"
  },
  {
    "STATION": "USC00216287",
    "DATE": "2018-06",
    "LATITUDE": "44.0976",
    "LONGITUDE": "-93.2318",
    "NAME": "OWATONNA, MN US",
    "PRCP": "132.3",
    "TAVG": "21.72"
  },
  {
    "STATION": "USC00473650",
    "DATE": "2018-06",
    "LATITUDE": "43.6341",
    "LONGITUDE": "-90.3792",
    "NAME": "HILLSBORO 2 SW, WI US",
    "PRCP": "111.9",
    "TAVG": "19.55"
  },
  {
    "STATION": "USS0010E03S",
    "DATE": "2018-06",
    "LATITUDE": "44.72",
    "LONGITUDE": "-110.51",
    "NAME": "CANYON, WY US",
    "PRCP": "76.1",
    "TAVG": "9.68"
  },
  {
    "STATION": "USC00508584",
    "DATE": "2018-06",
    "LATITUDE": "58.1421",
    "LONGITUDE": "-133.7385",
    "NAME": "SNETTISHAM POWER PLANT, AK US",
    "PRCP": "137.5",
    "TAVG": "12.81"
  },
  {
    "STATION": "USC00425402",
    "DATE": "2018-06",
    "LATITUDE": "39.25826",
    "LONGITUDE": "-111.6307",
    "NAME": "MANTI, UT US",
    "PRCP": "0.5",
    "TAVG": "20.50"
  },
  {
    "STATION": "GMM00010870",
    "DATE": "2018-06",
    "LATITUDE": "48.3667",
    "LONGITUDE": "11.8",
    "NAME": "SCHWAIGERMOOS, GM",
    "PRCP": "116.3",
    "TAVG": "17.41"
  },
  {
    "STATION": "NOE00133878",
    "DATE": "2018-06",
    "LATITUDE": "68.155",
    "LONGITUDE": "13.615",
    "NAME": "LEKNES LUFTHAVN, NO",
    "PRCP": "92.2",
    "TAVG": "8.55"
  },
  {
    "STATION": "USW00023066",
    "DATE": "2018-06",
    "LATITUDE": "39.1342",
    "LONGITUDE": "-108.54",
    "NAME": "GRAND JUNCTION WALKER FIELD, CO US",
    "PRCP": "2.3",
    "TAVG": "24.65"
  },
  {
    "STATION": "USC00053005",
    "DATE": "2018-06",
    "LATITUDE": "40.5763",
    "LONGITUDE": "-105.0857",
    "NAME": "FORT COLLINS, CO US",
    "PRCP": "31.1",
    "TAVG": "21.53"
  },
  {
    "STATION": "USC00258117",
    "DATE": "2018-06",
    "LATITUDE": "42.0413",
    "LONGITUDE": "-97.1747",
    "NAME": "STANTON 7 NE, NE US",
    "PRCP": "222.9",
    "TAVG": "22.89"
  },
  {
    "STATION": "USC00026471",
    "DATE": "2018-06",
    "LATITUDE": "36.1066",
    "LONGITUDE": "-112.0947",
    "NAME": "PHANTOM RANCH, AZ US",
    "PRCP": "0.0",
    "TAVG": "31.63"
  },
  {
    "STATION": "USC00349768",
    "DATE": "2018-06",
    "LATITUDE": "36.42306",
    "LONGITUDE": "-99.41667",
    "NAME": "WOODWARD 2 WSW MESONET, OK US",
    "PRCP": "134.4",
    "TAVG": "27.37"
  },
  {
    "STATION": "GME00132262",
    "DATE": "2018-06",
    "LATITUDE": "51.1056",
    "LONGITUDE": "11.7125",
    "NAME": "KREIPITZSCH BEI BAD KOSEN, GM",
    "PRCP": "15.5",
    "TAVG": "18.33"
  },
  {
    "STATION": "USS0007M16S",
    "DATE": "2018-06",
    "LATITUDE": "37.72",
    "LONGITUDE": "-107.26",
    "NAME": "UPPER RIO GRANDE, CO US",
    "PRCP": "10.1",
    "TAVG": "13.52"
  },
  {
    "STATION": "GME00124366",
    "DATE": "2018-06",
    "LATITUDE": "50.5028",
    "LONGITUDE": "6.5267",
    "NAME": "KALL SISTIG, GM",
    "PRCP": "43.5",
    "TAVG": "15.32"
  },
  {
    "STATION": "USC00242629",
    "DATE": "2018-06",
    "LATITUDE": "48.4472",
    "LONGITUDE": "-113.2236",
    "NAME": "EAST GLACIER, MT US",
    "PRCP": "",
    "TAVG": "12.10"
  },
  {
    "STATION": "USC00295617",
    "DATE": "2018-06",
    "LATITUDE": "34.4277",
    "LONGITUDE": "-103.625",
    "NAME": "MELROSE, NM US",
    "PRCP": "21.1",
    "TAVG": "25.88"
  },
  {
    "STATION": "USC00095863",
    "DATE": "2018-06",
    "LATITUDE": "32.8753",
    "LONGITUDE": "-82.2156",
    "NAME": "MIDVILLE EXPERIMENTAL STATION, GA US",
    "PRCP": "90.0",
    "TAVG": "26.63"
  },
  {
    "STATION": "ASN00053115",
    "DATE": "2018-06",
    "LATITUDE": "-29.4914",
    "LONGITUDE": "149.8458",
    "NAME": "MOREE AERO, AS",
    "PRCP": "3.4",
    "TAVG": "12.95"
  },
  {
    "STATION": "USW00024090",
    "DATE": "2018-06",
    "LATITUDE": "44.0433",
    "LONGITUDE": "-103.0536",
    "NAME": "RAPID CITY REGIONAL AIRPORT, SD US",
    "PRCP": "154.0",
    "TAVG": "19.10"
  },
  {
    "STATION": "USC00385362",
    "DATE": "2018-06",
    "LATITUDE": "34.24926",
    "LONGITUDE": "-80.66964",
    "NAME": "LUGOFF 2 NE, SC US",
    "PRCP": "80.8",
    "TAVG": "26.64"
  },
  {
    "STATION": "USC00447278",
    "DATE": "2018-06",
    "LATITUDE": "37.3622",
    "LONGITUDE": "-79.95871",
    "NAME": "ROANOKE 8 N, VA US",
    "PRCP": "164.8",
    "TAVG": "22.89"
  },
  {
    "STATION": "USC00407884",
    "DATE": "2018-06",
    "LATITUDE": "36.4161",
    "LONGITUDE": "-82.9838",
    "NAME": "ROGERSVILLE 1 NE, TN US",
    "PRCP": "133.7",
    "TAVG": "23.33"
  },
  {
    "STATION": "USC00203661",
    "DATE": "2018-06",
    "LATITUDE": "42.64208",
    "LONGITUDE": "-85.28819",
    "NAME": "HASTINGS, MI US",
    "PRCP": "80.3",
    "TAVG": "20.00"
  },
  {
    "STATION": "USC00315771",
    "DATE": "2018-06",
    "LATITUDE": "34.9797",
    "LONGITUDE": "-80.5233",
    "NAME": "MONROE 2 SE, NC US",
    "PRCP": "67.5",
    "TAVG": "26.46"
  },
  {
    "STATION": "USS0009S18S",
    "DATE": "2018-06",
    "LATITUDE": "33.76",
    "LONGITUDE": "-109.48",
    "NAME": "WILDCAT, AZ US",
    "PRCP": "12.6",
    "TAVG": "17.26"
  },
  {
    "STATION": "ASN00055202",
    "DATE": "2018-06",
    "LATITUDE": "-30.9537",
    "LONGITUDE": "150.2494",
    "NAME": "GUNNEDAH AIRPORT AWS, AS",
    "PRCP": "4.4",
    "TAVG": "11.05"
  },
  {
    "STATION": "NO000050540",
    "DATE": "2018-06",
    "LATITUDE": "60.3831",
    "LONGITUDE": "5.3331",
    "NAME": "BERGEN FLORIDA, NO",
    "PRCP": "101.1",
    "TAVG": "14.96"
  },
  {
    "STATION": "USC00485105",
    "DATE": "2018-06",
    "LATITUDE": "41.81814",
    "LONGITUDE": "-110.53328",
    "NAME": "KEMMERER 2 N, WY US",
    "PRCP": "8.1",
    "TAVG": "13.98"
  },
  {
    "STATION": "GME00128206",
    "DATE": "2018-06",
    "LATITUDE": "50.3531",
    "LONGITUDE": "10.0042",
    "NAME": "SANDBERG, GM",
    "PRCP": "46.3",
    "TAVG": "17.80"
  },
  {
    "STATION": "USC00113384",
    "DATE": "2018-06",
    "LATITUDE": "41.4511",
    "LONGITUDE": "-90.1487",
    "NAME": "GENESEO, IL US",
    "PRCP": "146.9",
    "TAVG": "23.74"
  },
  {
    "STATION": "GME00121222",
    "DATE": "2018-06",
    "LATITUDE": "49.9475",
    "LONGITUDE": "7.2644",
    "NAME": "HAHN, GM",
    "PRCP": "18.8",
    "TAVG": "16.51"
  },
  {
    "STATION": "USC00352374",
    "DATE": "2018-06",
    "LATITUDE": "43.7822",
    "LONGITUDE": "-122.963",
    "NAME": "DORENA, OR US",
    "PRCP": "37.4",
    "TAVG": "15.87"
  },
  {
    "STATION": "USC00058839",
    "DATE": "2018-06",
    "LATITUDE": "40.4256",
    "LONGITUDE": "-105.2103",
    "NAME": "WATERDALE, CO US",
    "PRCP": "32.8",
    "TAVG": "19.70"
  },
  {
    "STATION": "ASN00090176",
    "DATE": "2018-06",
    "LATITUDE": "-38.0737",
    "LONGITUDE": "142.7744",
    "NAME": "MORTLAKE RACECOURSE, AS",
    "PRCP": "61.8",
    "TAVG": "8.80"
  },
  {
    "STATION": "NOE00134118",
    "DATE": "2018-06",
    "LATITUDE": "61.6514",
    "LONGITUDE": "10.1083",
    "NAME": "VENABU, NO",
    "PRCP": "42.4",
    "TAVG": "10.92"
  },
  {
    "STATION": "USC00214453",
    "DATE": "2018-06",
    "LATITUDE": "43.7022",
    "LONGITUDE": "-95.1519",
    "NAME": "LAKEFIELD, MN US",
    "PRCP": "208.6",
    "TAVG": "21.29"
  },
  {
    "STATION": "GME00132538",
    "DATE": "2018-06",
    "LATITUDE": "50.7925",
    "LONGITUDE": "12.8733",
    "NAME": "CHEMNITZ, GM",
    "PRCP": "52.1",
    "TAVG": "17.33"
  },
  {
    "STATION": "USC00400669",
    "DATE": "2018-06",
    "LATITUDE": "36.4583",
    "LONGITUDE": "-86.324",
    "NAME": "BETHPAGE 1 S, TN US",
    "PRCP": "105.7",
    "TAVG": "24.73"
  },
  {
    "STATION": "USC00445453",
    "DATE": "2018-06",
    "LATITUDE": "36.6667",
    "LONGITUDE": "-80.4481",
    "NAME": "MEADOWS OF DAN 5 SW, VA US",
    "PRCP": "107.9",
    "TAVG": "21.74"
  },
  {
    "STATION": "USC00231189",
    "DATE": "2018-06",
    "LATITUDE": "38.6277",
    "LONGITUDE": "-92.5544",
    "NAME": "CALIFORNIA, MO US",
    "PRCP": "98.6",
    "TAVG": "25.39"
  },
  {
    "STATION": "GMW00034068",
    "DATE": "2018-06",
    "LATITUDE": "49.56667",
    "LONGITUDE": "8.46667",
    "NAME": "COLEMAN, GM",
    "PRCP": "40.8",
    "TAVG": "20.23"
  },
  {
    "STATION": "USS0007H03S",
    "DATE": "2018-06",
    "LATITUDE": "41.11",
    "LONGITUDE": "-107.17",
    "NAME": "SANDSTONE RANGER STATION, WY US",
    "PRCP": "2.5",
    "TAVG": "14.44"
  },
  {
    "STATION": "USC00048380",
    "DATE": "2018-06",
    "LATITUDE": "37.5122",
    "LONGITUDE": "-119.6331",
    "NAME": "SO ENTRANCE YOSEMITE N.P., CA US",
    "PRCP": "0.0",
    "TAVG": "16.18"
  },
  {
    "STATION": "USC00352406",
    "DATE": "2018-06",
    "LATITUDE": "43.6656",
    "LONGITUDE": "-123.3275",
    "NAME": "DRAIN, OR US",
    "PRCP": "34.8",
    "TAVG": "16.88"
  },
  {
    "STATION": "USW00014609",
    "DATE": "2018-06",
    "LATITUDE": "46.1185",
    "LONGITUDE": "-67.7928",
    "NAME": "HOULTON AIRPORT, ME US",
    "PRCP": "83.7",
    "TAVG": "14.06"
  },
  {
    "STATION": "USC00341283",
    "DATE": "2018-06",
    "LATITUDE": "34.84944",
    "LONGITUDE": "-97.00306",
    "NAME": "BYARS 3 ESE MESONET, OK US",
    "PRCP": "85.0",
    "TAVG": "26.62"
  },
  {
    "STATION": "USC00233601",
    "DATE": "2018-06",
    "LATITUDE": "39.7232",
    "LONGITUDE": "-91.3748",
    "NAME": "HANNIBAL WATER WORKS, MO US",
    "PRCP": "90.9",
    "TAVG": "25.01"
  },
  {
    "STATION": "USC00051996",
    "DATE": "2018-06",
    "LATITUDE": "40.86",
    "LONGITUDE": "-102.803",
    "NAME": "CROOK, CO US",
    "PRCP": "66.7",
    "TAVG": "22.01"
  },
  {
    "STATION": "USC00238754",
    "DATE": "2018-06",
    "LATITUDE": "36.85814",
    "LONGITUDE": "-92.58758",
    "NAME": "WASOLA 5 N, MO US",
    "PRCP": "73.5",
    "TAVG": "24.13"
  },
  {
    "STATION": "USW00093821",
    "DATE": "2018-06",
    "LATITUDE": "38.1811",
    "LONGITUDE": "-85.7391",
    "NAME": "LOUISVILLE INTERNATIONAL AIRPORT, KY US",
    "PRCP": "162.1",
    "TAVG": "26.21"
  },
  {
    "STATION": "USC00241297",
    "DATE": "2018-06",
    "LATITUDE": "45.5397",
    "LONGITUDE": "-106.9597",
    "NAME": "BUSBY, MT US",
    "PRCP": "66.7",
    "TAVG": "16.96"
  },
  {
    "STATION": "USC00404590",
    "DATE": "2018-06",
    "LATITUDE": "36.4259",
    "LONGITUDE": "-84.942",
    "NAME": "JAMESTOWN, TN US",
    "PRCP": "193.8",
    "TAVG": "22.93"
  },
  {
    "STATION": "USS0015B02S",
    "DATE": "2018-06",
    "LATITUDE": "47.46",
    "LONGITUDE": "-115.71",
    "NAME": "LOOKOUT, ID US",
    "PRCP": "33.0",
    "TAVG": "11.91"
  },
  {
    "STATION": "GME00122878",
    "DATE": "2018-06",
    "LATITUDE": "53.8431",
    "LONGITUDE": "13.6856",
    "NAME": "ANKLAM, GM",
    "PRCP": "13.6",
    "TAVG": "17.70"
  },
  {
    "STATION": "USW00024133",
    "DATE": "2018-06",
    "LATITUDE": "42.5416",
    "LONGITUDE": "-113.7661",
    "NAME": "BURLEY MUNICIPAL AIRPORT, ID US",
    "PRCP": "7.9",
    "TAVG": "18.24"
  },
  {
    "STATION": "USW00024127",
    "DATE": "2018-06",
    "LATITUDE": "40.7781",
    "LONGITUDE": "-111.9694",
    "NAME": "SALT LAKE CITY INTERNATIONAL AIRPORT, UT US",
    "PRCP": "1.3",
    "TAVG": "23.65"
  },
  {
    "STATION": "USC00031910",
    "DATE": "2018-06",
    "LATITUDE": "34.253",
    "LONGITUDE": "-93.1486",
    "NAME": "DEGRAY LAKE STATE PARK, AR US",
    "PRCP": "18.3",
    "TAVG": "26.68"
  },
  {
    "STATION": "USW00094182",
    "DATE": "2018-06",
    "LATITUDE": "44.88889",
    "LONGITUDE": "-116.10167",
    "NAME": "MCCALL AIRPORT, ID US",
    "PRCP": "16.2",
    "TAVG": "13.29"
  },
  {
    "STATION": "SPE00119756",
    "DATE": "2018-06",
    "LATITUDE": "39.0067",
    "LONGITUDE": "-1.8606",
    "NAME": "ALBACETE OBS., SP",
    "PRCP": "46.4",
    "TAVG": "21.73"
  },
  {
    "STATION": "USC00238740",
    "DATE": "2018-06",
    "LATITUDE": "36.5753",
    "LONGITUDE": "-94.0537",
    "NAME": "WASHBURN 5 W, MO US",
    "PRCP": "28.5",
    "TAVG": "26.29"
  },
  {
    "STATION": "SWE00139684",
    "DATE": "2018-06",
    "LATITUDE": "61.83",
    "LONGITUDE": "16.54",
    "NAME": "DELSBO A, SW",
    "PRCP": "24.1",
    "TAVG": "14.82"
  },
  {
    "STATION": "USS0011F11S",
    "DATE": "2018-06",
    "LATITUDE": "43.21",
    "LONGITUDE": "-111.69",
    "NAME": "SHEEP MOUNTAIN, ID US",
    "PRCP": "33.0",
    "TAVG": "13.35"
  },
  {
    "STATION": "ASN00027045",
    "DATE": "2018-06",
    "LATITUDE": "-12.6778",
    "LONGITUDE": "141.9208",
    "NAME": "WEIPA AERO, AS",
    "PRCP": "0.8",
    "TAVG": "25.00"
  },
  {
    "STATION": "USC00086764",
    "DATE": "2018-06",
    "LATITUDE": "26.8261",
    "LONGITUDE": "-80.1488",
    "NAME": "PALM BEACH GARDENS, FL US",
    "PRCP": "254.9",
    "TAVG": "27.51"
  },
  {
    "STATION": "USC00236745",
    "DATE": "2018-06",
    "LATITUDE": "38.8099",
    "LONGITUDE": "-94.2647",
    "NAME": "PLEASANT HILL WEATHER FORECAST OFFICE, MO US",
    "PRCP": "85.5",
    "TAVG": "25.25"
  },
  {
    "STATION": "USC00051772",
    "DATE": "2018-06",
    "LATITUDE": "39.1013",
    "LONGITUDE": "-108.7338",
    "NAME": "COLORADO NATIONAL MONUMENT, CO US",
    "PRCP": "8.4",
    "TAVG": "24.83"
  },
  {
    "STATION": "USS0013C39S",
    "DATE": "2018-06",
    "LATITUDE": "46.18",
    "LONGITUDE": "-113.85",
    "NAME": "DALY CREEK, MT US",
    "PRCP": "96.5",
    "TAVG": "11.05"
  },
  {
    "STATION": "USS0011C04S",
    "DATE": "2018-06",
    "LATITUDE": "46.35",
    "LONGITUDE": "-111.85",
    "NAME": "TIZER BASIN, MT US",
    "PRCP": "167.5",
    "TAVG": "9.91"
  },
  {
    "STATION": "USW00094814",
    "DATE": "2018-06",
    "LATITUDE": "44.3591",
    "LONGITUDE": "-84.6738",
    "NAME": "HOUGHTON LAKE ROSCOMMON CO AIRPORT, MI US",
    "PRCP": "30.1",
    "TAVG": "18.18"
  },
  {
    "STATION": "USC00463251",
    "DATE": "2018-06",
    "LATITUDE": "38.2869",
    "LONGITUDE": "-79.8181",
    "NAME": "FROST 3 NE, WV US",
    "PRCP": "132.2",
    "TAVG": "18.04"
  },
  {
    "STATION": "USS0021B48S",
    "DATE": "2018-06",
    "LATITUDE": "47.78",
    "LONGITUDE": "-121.7",
    "NAME": "ALPINE MEADOWS, WA US",
    "PRCP": "162.4",
    "TAVG": "9.97"
  },
  {
    "STATION": "USW00014972",
    "DATE": "2018-06",
    "LATITUDE": "43.16444",
    "LONGITUDE": "-95.20167",
    "NAME": "SPENCER MUNICIPAL AIRPORT, IA US",
    "PRCP": "177.3",
    "TAVG": "22.72"
  },
  {
    "STATION": "IN001170800",
    "DATE": "2018-06",
    "LATITUDE": "18.667",
    "LONGITUDE": "78.1",
    "NAME": "NIZAMABAD, IN",
    "PRCP": "",
    "TAVG": "30.97"
  },
  {
    "STATION": "IN012090600",
    "DATE": "2018-06",
    "LATITUDE": "19.967",
    "LONGITUDE": "79.3",
    "NAME": "CHANDRAPUR, IN",
    "PRCP": "",
    "TAVG": "31.96"
  },
  {
    "STATION": "RQC00665693",
    "DATE": "2018-06",
    "LATITUDE": "17.9722",
    "LONGITUDE": "-67.0461",
    "NAME": "MAGUEYES ISLAND, PR US",
    "PRCP": "0.0",
    "TAVG": "28.31"
  },
  {
    "STATION": "USW00027406",
    "DATE": "2018-06",
    "LATITUDE": "70.1917",
    "LONGITUDE": "-148.4772",
    "NAME": "DEADHORSE AIRPORT, AK US",
    "PRCP": "0.0",
    "TAVG": "1.77"
  },
  {
    "STATION": "USC00414967",
    "DATE": "2018-06",
    "LATITUDE": "33.06417",
    "LONGITUDE": "-101.04889",
    "NAME": "LAKE ALAN HENRY, TX US",
    "PRCP": "19.8",
    "TAVG": "29.24"
  },
  {
    "STATION": "USC00058756",
    "DATE": "2018-06",
    "LATITUDE": "40.7442",
    "LONGITUDE": "-106.2792",
    "NAME": "WALDEN, CO US",
    "PRCP": "17.8",
    "TAVG": "12.15"
  },
  {
    "STATION": "NOE00110119",
    "DATE": "2018-06",
    "LATITUDE": "60.7",
    "LONGITUDE": "10.8667",
    "NAME": "OSTRE TOTEN APELSVOLL, NO",
    "PRCP": "55.6",
    "TAVG": "16.39"
  },
  {
    "STATION": "USS0010E15S",
    "DATE": "2018-06",
    "LATITUDE": "44.13",
    "LONGITUDE": "-110.83",
    "NAME": "GRASSY LAKE, WY US",
    "PRCP": "111.7",
    "TAVG": "9.90"
  },
  {
    "STATION": "USS0005N14S",
    "DATE": "2018-06",
    "LATITUDE": "36.58",
    "LONGITUDE": "-105.46",
    "NAME": "TAOS POWDERHORN, NM US",
    "PRCP": "15.2",
    "TAVG": "14.01"
  },
  {
    "STATION": "ASN00079105",
    "DATE": "2018-06",
    "LATITUDE": "-37.068",
    "LONGITUDE": "142.7412",
    "NAME": "STAWELL AERODROME, AS",
    "PRCP": "41.2",
    "TAVG": "8.44"
  },
  {
    "STATION": "USC00203932",
    "DATE": "2018-06",
    "LATITUDE": "44.3119",
    "LONGITUDE": "-84.8922",
    "NAME": "HOUGHTON LAKE 6 WSW, MI US",
    "PRCP": "29.8",
    "TAVG": "17.43"
  },
  {
    "STATION": "USS0005P04S",
    "DATE": "2018-06",
    "LATITUDE": "35.7",
    "LONGITUDE": "-105.81",
    "NAME": "ELK CABIN, NM US",
    "PRCP": "7.6",
    "TAVG": "17.25"
  },
  {
    "STATION": "USC00057317",
    "DATE": "2018-06",
    "LATITUDE": "37.9137",
    "LONGITUDE": "-104.9484",
    "NAME": "RYE 1 SW, CO US",
    "PRCP": "10.9",
    "TAVG": "21.93"
  },
  {
    "STATION": "USC00301664",
    "DATE": "2018-06",
    "LATITUDE": "44.5842",
    "LONGITUDE": "-74.9573",
    "NAME": "COLTON 2 N, NY US",
    "PRCP": "82.6",
    "TAVG": "16.97"
  },
  {
    "STATION": "USC00505881",
    "DATE": "2018-06",
    "LATITUDE": "63.9033",
    "LONGITUDE": "-152.2816",
    "NAME": "MINCHUMINA, AK US",
    "PRCP": "41.0",
    "TAVG": "13.48"
  },
  {
    "STATION": "USC00245754",
    "DATE": "2018-06",
    "LATITUDE": "46.2858",
    "LONGITUDE": "-105.2919",
    "NAME": "MIZPAH 4 NNW, MT US",
    "PRCP": "101.1",
    "TAVG": "19.09"
  },
  {
    "STATION": "USC00341240",
    "DATE": "2018-06",
    "LATITUDE": "36.8313",
    "LONGITUDE": "-99.641",
    "NAME": "BUFFALO 1 SW MESONET, OK US",
    "PRCP": "158.3",
    "TAVG": "27.96"
  },
  {
    "STATION": "USW00014755",
    "DATE": "2018-06",
    "LATITUDE": "44.27018",
    "LONGITUDE": "-71.30336",
    "NAME": "MOUNT WASHINGTON, NH US",
    "PRCP": "189.5",
    "TAVG": "6.98"
  },
  {
    "STATION": "SWE00140390",
    "DATE": "2018-06",
    "LATITUDE": "64.73",
    "LONGITUDE": "13.96",
    "NAME": "JORMLIEN, SW",
    "PRCP": "65.7",
    "TAVG": "9.24"
  },
  {
    "STATION": "USC00301102",
    "DATE": "2018-06",
    "LATITUDE": "41.8275",
    "LONGITUDE": "-74.9506",
    "NAME": "CALLICOON CENTER, NY US",
    "PRCP": "96.8",
    "TAVG": "16.98"
  },
  {
    "STATION": "USW00013984",
    "DATE": "2018-06",
    "LATITUDE": "39.5514",
    "LONGITUDE": "-97.6508",
    "NAME": "CONCORDIA ASOS, KS US",
    "PRCP": "125.1",
    "TAVG": "25.99"
  },
  {
    "STATION": "USC00272846",
    "DATE": "2018-06",
    "LATITUDE": "44.7925",
    "LONGITUDE": "-71.1634",
    "NAME": "ERROL AIRPORT, NH US",
    "PRCP": "78.7",
    "TAVG": "14.68"
  },
  {
    "STATION": "USC00315177",
    "DATE": "2018-06",
    "LATITUDE": "34.6269",
    "LONGITUDE": "-79.025",
    "NAME": "LUMBERTON, NC US",
    "PRCP": "150.8",
    "TAVG": "26.40"
  },
  {
    "STATION": "USC00047851",
    "DATE": "2018-06",
    "LATITUDE": "35.3056",
    "LONGITUDE": "-120.6619",
    "NAME": "SAN LUIS OBISPO POLY, CA US",
    "PRCP": "0.0",
    "TAVG": "17.51"
  },
  {
    "STATION": "USC00046597",
    "DATE": "2018-06",
    "LATITUDE": "38.7583",
    "LONGITUDE": "-120.503",
    "NAME": "PACIFIC HOUSE, CA US",
    "PRCP": "0.0",
    "TAVG": "18.93"
  },
  {
    "STATION": "USC00134101",
    "DATE": "2018-06",
    "LATITUDE": "41.6093",
    "LONGITUDE": "-91.5051",
    "NAME": "IOWA CITY, IA US",
    "PRCP": "216.7",
    "TAVG": "23.05"
  },
  {
    "STATION": "USC00419270",
    "DATE": "2018-06",
    "LATITUDE": "30.5908",
    "LONGITUDE": "-104.4915",
    "NAME": "VALENTINE, TX US",
    "PRCP": "22.3",
    "TAVG": "27.47"
  },
  {
    "STATION": "USW00013748",
    "DATE": "2018-06",
    "LATITUDE": "34.2675",
    "LONGITUDE": "-77.8997",
    "NAME": "WILMINGTON INTERNATIONAL AIRPORT, NC US",
    "PRCP": "213.8",
    "TAVG": "27.11"
  },
  {
    "STATION": "KZ000035358",
    "DATE": "2018-06",
    "LATITUDE": "49.63",
    "LONGITUDE": "63.5",
    "NAME": "TURGAJ, KZ",
    "PRCP": "",
    "TAVG": "20.25"
  },
  {
    "STATION": "CQC00914855",
    "DATE": "2018-06",
    "LATITUDE": "15.11667",
    "LONGITUDE": "145.71667",
    "NAME": "SAIPAN INTERNATIONAL AIRPORT, MP CQ",
    "PRCP": "167.5",
    "TAVG": "28.40"
  },
  {
    "STATION": "MUM00041252",
    "DATE": "2018-06",
    "LATITUDE": "23.233",
    "LONGITUDE": "56.433",
    "NAME": "IBRI, MU",
    "PRCP": "",
    "TAVG": "37.29"
  },
  {
    "STATION": "USS0003E05S",
    "DATE": "2018-06",
    "LATITUDE": "44.21",
    "LONGITUDE": "-103.79",
    "NAME": "NORTH RAPID CREEK, SD US",
    "PRCP": "88.8",
    "TAVG": "15.01"
  },
  {
    "STATION": "USS0016G07S",
    "DATE": "2018-06",
    "LATITUDE": "42.6",
    "LONGITUDE": "-116.56",
    "NAME": "MUD FLAT, ID US",
    "PRCP": "43.2",
    "TAVG": "14.17"
  },
  {
    "STATION": "USS0006N04S",
    "DATE": "2018-06",
    "LATITUDE": "36.51",
    "LONGITUDE": "-106.32",
    "NAME": "BATEMAN, NM US",
    "PRCP": "22.8",
    "TAVG": "16.28"
  },
  {
    "STATION": "USS0011E38S",
    "DATE": "2018-06",
    "LATITUDE": "44.95",
    "LONGITUDE": "-111.36",
    "NAME": "BEAVER CREEK, MT US",
    "PRCP": "91.3",
    "TAVG": "9.26"
  },
  {
    "STATION": "SPE00156531",
    "DATE": "2018-06",
    "LATITUDE": "42.1392",
    "LONGITUDE": "1.0389",
    "NAME": "SANT ROMA DABELLA, SP",
    "PRCP": "116.3",
    "TAVG": "20.82"
  },
  {
    "STATION": "GME00130918",
    "DATE": "2018-06",
    "LATITUDE": "47.6758",
    "LONGITUDE": "12.4708",
    "NAME": "REIT IM WINKL, GM",
    "PRCP": "178.6",
    "TAVG": "16.57"
  },
  {
    "STATION": "RSM00034056",
    "DATE": "2018-06",
    "LATITUDE": "52.25",
    "LONGITUDE": "43.783",
    "NAME": "RTISCEVO, RS",
    "PRCP": "11.9",
    "TAVG": "17.61"
  },
  {
    "STATION": "USW00004787",
    "DATE": "2018-06",
    "LATITUDE": "41.17947",
    "LONGITUDE": "-78.89326",
    "NAME": "DUBOIS JEFFERSON CO AIRPORT, PA US",
    "PRCP": "134.8",
    "TAVG": "18.57"
  },
  {
    "STATION": "SWE00138798",
    "DATE": "2018-06",
    "LATITUDE": "59.19",
    "LONGITUDE": "17.63",
    "NAME": "SODERTALJE, SW",
    "PRCP": "57.4",
    "TAVG": "16.66"
  },
  {
    "STATION": "SPE00156243",
    "DATE": "2018-06",
    "LATITUDE": "40.9514",
    "LONGITUDE": "0.3056",
    "NAME": "HORTA DE SANT JOAN, SP",
    "PRCP": "16.3",
    "TAVG": "21.01"
  },
  {
    "STATION": "USS0010D07S",
    "DATE": "2018-06",
    "LATITUDE": "45.01",
    "LONGITUDE": "-110.01",
    "NAME": "NORTHEAST ENTRANCE, MT US",
    "PRCP": "103.7",
    "TAVG": "10.69"
  },
  {
    "STATION": "UZM00038149",
    "DATE": "2018-06",
    "LATITUDE": "43.083",
    "LONGITUDE": "58.933",
    "NAME": "KUNGRAD, UZ",
    "PRCP": "",
    "TAVG": "24.70"
  },
  {
    "STATION": "GME00123970",
    "DATE": "2018-06",
    "LATITUDE": "47.8831",
    "LONGITUDE": "11.6975",
    "NAME": "HOLZKIRCHEN, GM",
    "PRCP": "91.2",
    "TAVG": "17.40"
  },
  {
    "STATION": "USS0015F05S",
    "DATE": "2018-06",
    "LATITUDE": "43.63",
    "LONGITUDE": "-115.44",
    "NAME": "TRINITY MOUNTAIN, ID US",
    "PRCP": "27.9",
    "TAVG": "10.49"
  },
  {
    "STATION": "ASN00067105",
    "DATE": "2018-06",
    "LATITUDE": "-33.6004",
    "LONGITUDE": "150.7761",
    "NAME": "RICHMOND RAAF, AS",
    "PRCP": "40.4",
    "TAVG": "11.73"
  },
  {
    "STATION": "USS0015C10S",
    "DATE": "2018-06",
    "LATITUDE": "46.98",
    "LONGITUDE": "-115.03",
    "NAME": "HOODOO BASIN, MT US",
    "PRCP": "91.2",
    "TAVG": "9.26"
  },
  {
    "STATION": "EI000003980",
    "DATE": "2018-06",
    "LATITUDE": "55.3717",
    "LONGITUDE": "-7.34",
    "NAME": "MALIN HEAD, EI",
    "PRCP": "51.1",
    "TAVG": "13.50"
  },
  {
    "STATION": "USS0014E01S",
    "DATE": "2018-06",
    "LATITUDE": "44.47",
    "LONGITUDE": "-114.49",
    "NAME": "MILL CREEK SUMMIT, ID US",
    "PRCP": "60.9",
    "TAVG": "8.33"
  },
  {
    "STATION": "FIE00143066",
    "DATE": "2018-06",
    "LATITUDE": "61.1994",
    "LONGITUDE": "26.0528",
    "NAME": "HEINOLA ASEMANTAUS, FI",
    "PRCP": "54.7",
    "TAVG": "15.11"
  },
  {
    "STATION": "USW00012873",
    "DATE": "2018-06",
    "LATITUDE": "27.91056",
    "LONGITUDE": "-82.6875",
    "NAME": "ST PETERSBURG CLEARWATER INTERNATIONAL AIRPORT, FL US",
    "PRCP": "140.2",
    "TAVG": "27.62"
  },
  {
    "STATION": "FMW00040308",
    "DATE": "2018-06",
    "LATITUDE": "9.48333",
    "LONGITUDE": "138.08333",
    "NAME": "YAP ISLAND WEATHER SERVICE OFFICE AIRPORT, FM FM",
    "PRCP": "296.6",
    "TAVG": "28.21"
  },
  {
    "STATION": "GMM00010253",
    "DATE": "2018-06",
    "LATITUDE": "52.9739",
    "LONGITUDE": "11.1392",
    "NAME": "LUCHOW, GM",
    "PRCP": "15.2",
    "TAVG": "17.84"
  },
  {
    "STATION": "ASN00093053",
    "DATE": "2018-06",
    "LATITUDE": "-42.025",
    "LONGITUDE": "147.4953",
    "NAME": "ROSS THE BOULEVARDS, AS",
    "PRCP": "36.4",
    "TAVG": "6.49"
  },
  {
    "STATION": "RSM00027957",
    "DATE": "2018-06",
    "LATITUDE": "52.667",
    "LONGITUDE": "42.717",
    "NAME": "KIRSANOV, RS",
    "PRCP": "20.4",
    "TAVG": "17.78"
  },
  {
    "STATION": "USS0021A36S",
    "DATE": "2018-06",
    "LATITUDE": "48.82",
    "LONGITUDE": "-121.93",
    "NAME": "MF NOOKSACK, WA US",
    "PRCP": "159.8",
    "TAVG": "7.82"
  },
  {
    "STATION": "USS0006K46S",
    "DATE": "2018-06",
    "LATITUDE": "39.26",
    "LONGITUDE": "-106.63",
    "NAME": "CHAPMAN TUNNEL, CO US",
    "PRCP": "27.9",
    "TAVG": "12.04"
  },
  {
    "STATION": "GME00124762",
    "DATE": "2018-06",
    "LATITUDE": "51.7528",
    "LONGITUDE": "12.0092",
    "NAME": "KOTHEN ANHALT, GM",
    "PRCP": "24.6",
    "TAVG": "19.77"
  },
  {
    "STATION": "SWE00140838",
    "DATE": "2018-06",
    "LATITUDE": "67.205",
    "LONGITUDE": "23.3953",
    "NAME": "PAJALA A, SW",
    "PRCP": "51.9",
    "TAVG": "10.11"
  },
  {
    "STATION": "USW00003981",
    "DATE": "2018-06",
    "LATITUDE": "34.34444",
    "LONGITUDE": "-98.98306",
    "NAME": "FREDERICK MUNICIPAL AIRPORT, OK US",
    "PRCP": "3.0",
    "TAVG": "29.77"
  },
  {
    "STATION": "USW00003759",
    "DATE": "2018-06",
    "LATITUDE": "37.9975",
    "LONGITUDE": "-78.4656",
    "NAME": "CHARLOTTESVILLE 2 SSE, VA US",
    "PRCP": "145.3",
    "TAVG": "22.18"
  },
  {
    "STATION": "NLE00152478",
    "DATE": "2018-06",
    "LATITUDE": "52.6428",
    "LONGITUDE": "4.9789",
    "NAME": "BERKHOUT, NL",
    "PRCP": "14.0",
    "TAVG": "16.13"
  },
  {
    "STATION": "USS0006J03S",
    "DATE": "2018-06",
    "LATITUDE": "40.39",
    "LONGITUDE": "-106.6",
    "NAME": "COLUMBINE, CO US",
    "PRCP": "17.8",
    "TAVG": "12.92"
  },
  {
    "STATION": "USW00053146",
    "DATE": "2018-06",
    "LATITUDE": "31.60722",
    "LONGITUDE": "-110.42806",
    "NAME": "FORT HUACHUCA PIONEER AIRFIELD, AZ US",
    "PRCP": "18.3",
    "TAVG": "25.96"
  },
  {
    "STATION": "SPE00120458",
    "DATE": "2018-06",
    "LATITUDE": "28.4631",
    "LONGITUDE": "-16.2553",
    "NAME": "STA. CRUZ DE TENERIFE, SP",
    "PRCP": "1.2",
    "TAVG": "22.66"
  },
  {
    "STATION": "SZ000003700",
    "DATE": "2018-06",
    "LATITUDE": "47.3831",
    "LONGITUDE": "8.5667",
    "NAME": "ZUERICH FLUNTERN, SZ",
    "PRCP": "64.5",
    "TAVG": "18.84"
  },
  {
    "STATION": "USW00003017",
    "DATE": "2018-06",
    "LATITUDE": "39.8328",
    "LONGITUDE": "-104.6575",
    "NAME": "DENVER INTERNATIONAL AIRPORT, CO US",
    "PRCP": "11.0",
    "TAVG": "22.47"
  },
  {
    "STATION": "USS0020K31S",
    "DATE": "2018-06",
    "LATITUDE": "39.33",
    "LONGITUDE": "-120.37",
    "NAME": "CSS LAB, CA US",
    "PRCP": "0.0",
    "TAVG": "14.22"
  },
  {
    "STATION": "ASN00016065",
    "DATE": "2018-06",
    "LATITUDE": "-30.449",
    "LONGITUDE": "137.1692",
    "NAME": "ANDAMOOKA, AS",
    "PRCP": "5.2",
    "TAVG": "12.73"
  },
  {
    "STATION": "RSW00037201",
    "DATE": "2018-06",
    "LATITUDE": "71.5855",
    "LONGITUDE": "128.9158",
    "NAME": "TIKSI 4 SSE, SA RS",
    "PRCP": "29.4",
    "TAVG": "5.63"
  },
  {
    "STATION": "USW00053152",
    "DATE": "2018-06",
    "LATITUDE": "34.4141",
    "LONGITUDE": "-119.8796",
    "NAME": "SANTA BARBARA 11 W, CA US",
    "PRCP": "0.6",
    "TAVG": "16.57"
  },
  {
    "STATION": "GME00125326",
    "DATE": "2018-06",
    "LATITUDE": "54.3406",
    "LONGITUDE": "12.7106",
    "NAME": "BARTH, GM",
    "PRCP": "44.0",
    "TAVG": "15.89"
  },
  {
    "STATION": "GME00131434",
    "DATE": "2018-06",
    "LATITUDE": "48.6717",
    "LONGITUDE": "9.4633",
    "NAME": "NOTZINGEN, GM",
    "PRCP": "80.7",
    "TAVG": "18.21"
  },
  {
    "STATION": "ASN00050031",
    "DATE": "2018-06",
    "LATITUDE": "-32.7235",
    "LONGITUDE": "148.1902",
    "NAME": "PEAK HILL POST OFFICE, AS",
    "PRCP": "26.0",
    "TAVG": "11.66"
  },
  {
    "STATION": "USW00003016",
    "DATE": "2018-06",
    "LATITUDE": "39.52778",
    "LONGITUDE": "-107.71972",
    "NAME": "RIFLE GARFIELD CO AIRPORT, CO US",
    "PRCP": "6.9",
    "TAVG": "21.59"
  },
  {
    "STATION": "USS0012L07S",
    "DATE": "2018-06",
    "LATITUDE": "38.3",
    "LONGITUDE": "-112.36",
    "NAME": "BIG FLAT, UT US",
    "PRCP": "0.0",
    "TAVG": "12.60"
  },
  {
    "STATION": "ASN00009178",
    "DATE": "2018-06",
    "LATITUDE": "-31.4628",
    "LONGITUDE": "115.8642",
    "NAME": "GINGIN AERO, AS",
    "PRCP": "94.2",
    "TAVG": "13.26"
  },
  {
    "STATION": "ASN00041100",
    "DATE": "2018-06",
    "LATITUDE": "-28.8544",
    "LONGITUDE": "151.1681",
    "NAME": "TEXAS POST OFFICE, AS",
    "PRCP": "5.8",
    "TAVG": "12.28"
  },
  {
    "STATION": "USW00004751",
    "DATE": "2018-06",
    "LATITUDE": "41.8",
    "LONGITUDE": "-78.6333",
    "NAME": "BRADFORD REGIONAL AIRPORT, PA US",
    "PRCP": "83.5",
    "TAVG": "17.24"
  },
  {
    "STATION": "USW00003758",
    "DATE": "2018-06",
    "LATITUDE": "35.9705",
    "LONGITUDE": "-79.0931",
    "NAME": "DURHAM 11 W, NC US",
    "PRCP": "102.8",
    "TAVG": "24.61"
  },
  {
    "STATION": "NLE00152479",
    "DATE": "2018-06",
    "LATITUDE": "52.4342",
    "LONGITUDE": "6.2589",
    "NAME": "HEINO, NL",
    "PRCP": "26.3",
    "TAVG": "16.88"
  },
  {
    "STATION": "SWE00138028",
    "DATE": "2018-06",
    "LATITUDE": "57.27",
    "LONGITUDE": "16.41",
    "NAME": "OSKARSHAMN, SW",
    "PRCP": "2.8",
    "TAVG": "17.33"
  },
  {
    "STATION": "USW00003994",
    "DATE": "2018-06",
    "LATITUDE": "38.70417",
    "LONGITUDE": "-93.18333",
    "NAME": "SEDALIA MEMORIAL AIRPORT, MO US",
    "PRCP": "119.6",
    "TAVG": "26.26"
  },
  {
    "STATION": "GME00130702",
    "DATE": "2018-06",
    "LATITUDE": "50.7328",
    "LONGITUDE": "13.7531",
    "NAME": "ZINNWALD GEORGENFELD, GM",
    "PRCP": "46.9",
    "TAVG": "14.21"
  },
  {
    "STATION": "TX000038987",
    "DATE": "2018-06",
    "LATITUDE": "35.2831",
    "LONGITUDE": "62.35",
    "NAME": "GYSHGY, TX",
    "PRCP": "",
    "TAVG": "27.58"
  },
  {
    "STATION": "GME00128818",
    "DATE": "2018-06",
    "LATITUDE": "48.0728",
    "LONGITUDE": "9.1953",
    "NAME": "SIGMARINGEN LAIZ, GM",
    "PRCP": "48.1",
    "TAVG": "16.75"
  },
  {
    "STATION": "USS0010J06S",
    "DATE": "2018-06",
    "LATITUDE": "40.98",
    "LONGITUDE": "-110.85",
    "NAME": "BURTS MILLER RANCH, UT US",
    "PRCP": "2.5",
    "TAVG": "12.68"
  },
  {
    "STATION": "SWE00140178",
    "DATE": "2018-06",
    "LATITUDE": "63.8081",
    "LONGITUDE": "20.8692",
    "NAME": "HOLMON A, SW",
    "PRCP": "46.8",
    "TAVG": "13.11"
  },
  {
    "STATION": "USS0015H04S",
    "DATE": "2018-06",
    "LATITUDE": "41.76",
    "LONGITUDE": "-115.69",
    "NAME": "BIG BEND, NV US",
    "PRCP": "7.6",
    "TAVG": "13.25"
  },
  {
    "STATION": "NLE00152492",
    "DATE": "2018-06",
    "LATITUDE": "51.1967",
    "LONGITUDE": "5.7625",
    "NAME": "ELL, NL",
    "PRCP": "7.8",
    "TAVG": "17.96"
  },
  {
    "STATION": "RP000986530",
    "DATE": "2018-06",
    "LATITUDE": "9.8",
    "LONGITUDE": "125.5",
    "NAME": "SURIGAO, RP",
    "PRCP": "",
    "TAVG": "28.97"
  },
  {
    "STATION": "ASN00009193",
    "DATE": "2018-06",
    "LATITUDE": "-32.0069",
    "LONGITUDE": "115.5022",
    "NAME": "ROTTNEST ISLAND, AS",
    "PRCP": "112.2",
    "TAVG": "16.30"
  },
  {
    "STATION": "SWE00140622",
    "DATE": "2018-06",
    "LATITUDE": "65.8197",
    "LONGITUDE": "24.12",
    "NAME": "HAPARANDA A, SW",
    "PRCP": "52.0",
    "TAVG": "11.75"
  },
  {
    "STATION": "USW00026533",
    "DATE": "2018-06",
    "LATITUDE": "66.9169",
    "LONGITUDE": "-151.5154",
    "NAME": "BETTLES AIRPORT, AK US",
    "PRCP": "66.8",
    "TAVG": "13.56"
  },
  {
    "STATION": "GME00128830",
    "DATE": "2018-06",
    "LATITUDE": "47.5783",
    "LONGITUDE": "9.7417",
    "NAME": "SIGMARSZELL ZEISERTSWEILER, GM",
    "PRCP": "64.8",
    "TAVG": "18.20"
  },
  {
    "STATION": "USW00003957",
    "DATE": "2018-06",
    "LATITUDE": "37.2839",
    "LONGITUDE": "-98.5528",
    "NAME": "MEDICINE LODGE 1 E, KS US",
    "PRCP": "160.6",
    "TAVG": "26.73"
  },
  {
    "STATION": "ASN00014840",
    "DATE": "2018-06",
    "LATITUDE": "-17.3871",
    "LONGITUDE": "131.1166",
    "NAME": "WAVE HILL, AS",
    "PRCP": "0.0",
    "TAVG": "20.84"
  },
  {
    "STATION": "ASN00023034",
    "DATE": "2018-06",
    "LATITUDE": "-34.9524",
    "LONGITUDE": "138.5204",
    "NAME": "ADELAIDE AIRPORT, AS",
    "PRCP": "33.8",
    "TAVG": "11.48"
  },
  {
    "STATION": "ASN00047029",
    "DATE": "2018-06",
    "LATITUDE": "-33.3856",
    "LONGITUDE": "142.5696",
    "NAME": "POONCARIE MAIL AGENCY, AS",
    "PRCP": "12.3",
    "TAVG": "10.37"
  },
  {
    "STATION": "SWE00138202",
    "DATE": "2018-06",
    "LATITUDE": "57.71",
    "LONGITUDE": "16.46",
    "NAME": "GLADHAMMAR A, SW",
    "PRCP": "17.2",
    "TAVG": "17.13"
  },
  {
    "STATION": "USS0017J02S",
    "DATE": "2018-06",
    "LATITUDE": "40.88",
    "LONGITUDE": "-117.59",
    "NAME": "GOLCONDA, NV US",
    "PRCP": "10.2",
    "TAVG": "15.15"
  },
  {
    "STATION": "USS0016E10S",
    "DATE": "2018-06",
    "LATITUDE": "44.61",
    "LONGITUDE": "-116.98",
    "NAME": "BEAR SADDLE, ID US",
    "PRCP": "43.1",
    "TAVG": "11.50"
  },
  {
    "STATION": "USW00014768",
    "DATE": "2018-06",
    "LATITUDE": "43.1167",
    "LONGITUDE": "-77.6767",
    "NAME": "ROCHESTER GREATER INTERNATIONAL, NY US",
    "PRCP": "56.4",
    "TAVG": "19.77"
  },
  {
    "STATION": "MUM00041253",
    "DATE": "2018-06",
    "LATITUDE": "23.417",
    "LONGITUDE": "57.433",
    "NAME": "RUSTAQ, MU",
    "PRCP": "",
    "TAVG": "38.24"
  },
  {
    "STATION": "GME00123226",
    "DATE": "2018-06",
    "LATITUDE": "49.9325",
    "LONGITUDE": "6.3756",
    "NAME": "OLSDORF, GM",
    "PRCP": "68.0",
    "TAVG": "17.47"
  },
  {
    "STATION": "SWE00138216",
    "DATE": "2018-06",
    "LATITUDE": "57.72",
    "LONGITUDE": "14.99",
    "NAME": "PRASTKULLA, SW",
    "PRCP": "28.1",
    "TAVG": "16.25"
  },
  {
    "STATION": "GME00127726",
    "DATE": "2018-06",
    "LATITUDE": "48.7433",
    "LONGITUDE": "8.925",
    "NAME": "RENNINGEN IHINGER HOF, GM",
    "PRCP": "25.9",
    "TAVG": "17.11"
  },
  {
    "STATION": "USW00013991",
    "DATE": "2018-06",
    "LATITUDE": "39.1341",
    "LONGITUDE": "-93.2225",
    "NAME": "MARSHALL, MO US",
    "PRCP": "96.0",
    "TAVG": "25.76"
  },
  {
    "STATION": "SIE00115196",
    "DATE": "2018-06",
    "LATITUDE": "46.7",
    "LONGITUDE": "16.2",
    "NAME": "MURSKA SOBOTA RAKICAN, SI",
    "PRCP": "158.9",
    "TAVG": "20.57"
  },
  {
    "STATION": "ASN00022841",
    "DATE": "2018-06",
    "LATITUDE": "-35.7114",
    "LONGITUDE": "137.5231",
    "NAME": "KINGSCOTE AERO, AS",
    "PRCP": "68.8",
    "TAVG": "10.82"
  },
  {
    "STATION": "USW00094626",
    "DATE": "2018-06",
    "LATITUDE": "45.46222",
    "LONGITUDE": "-69.59528",
    "NAME": "GREENVILLE MAINE FORESTRY SERVICE, ME US",
    "PRCP": "114.7",
    "TAVG": "14.81"
  },
  {
    "STATION": "USW00014740",
    "DATE": "2018-06",
    "LATITUDE": "41.9375",
    "LONGITUDE": "-72.6819",
    "NAME": "HARTFORD BRADLEY INTERNATIONAL AIRPORT, CT US",
    "PRCP": "102.5",
    "TAVG": "20.00"
  },
  {
    "STATION": "USS0013B07S",
    "DATE": "2018-06",
    "LATITUDE": "47.27",
    "LONGITUDE": "-113.76",
    "NAME": "NORTH FORK JOCKO, MT US",
    "PRCP": "127.2",
    "TAVG": "8.59"
  },
  {
    "STATION": "USW00013985",
    "DATE": "2018-06",
    "LATITUDE": "37.7686",
    "LONGITUDE": "-99.9678",
    "NAME": "DODGE CITY REGIONAL AIRPORT, KS US",
    "PRCP": "72.4",
    "TAVG": "26.33"
  },
  {
    "STATION": "SWE00139134",
    "DATE": "2018-06",
    "LATITUDE": "59.83",
    "LONGITUDE": "18.63",
    "NAME": "SVANBERGA A, SW",
    "PRCP": "24.7",
    "TAVG": "14.70"
  },
  {
    "STATION": "GMM00010736",
    "DATE": "2018-06",
    "LATITUDE": "48.9731",
    "LONGITUDE": "8.8742",
    "NAME": "MUHLACKER, GM",
    "PRCP": "16.1",
    "TAVG": "18.44"
  },
  {
    "STATION": "USW00093808",
    "DATE": "2018-06",
    "LATITUDE": "36.9647",
    "LONGITUDE": "-86.4238",
    "NAME": "BOWLING GREEN WARREN CO AIRPORT, KY US",
    "PRCP": "84.6",
    "TAVG": "26.42"
  },
  {
    "STATION": "USS0010G02S",
    "DATE": "2018-06",
    "LATITUDE": "42.96",
    "LONGITUDE": "-110.61",
    "NAME": "BLIND BULL SUM, WY US",
    "PRCP": "55.8",
    "TAVG": "9.62"
  },
  {
    "STATION": "SWE00137680",
    "DATE": "2018-06",
    "LATITUDE": "56.15",
    "LONGITUDE": "15.59",
    "NAME": "KARLSKRONA SODERSTJ., SW",
    "PRCP": "8.7",
    "TAVG": "18.26"
  },
  {
    "STATION": "GME00120934",
    "DATE": "2018-06",
    "LATITUDE": "47.8756",
    "LONGITUDE": "8.0044",
    "NAME": "FELDBERG SCHWARZWALD, GM",
    "PRCP": "147.6",
    "TAVG": "11.21"
  },
  {
    "STATION": "USW00094815",
    "DATE": "2018-06",
    "LATITUDE": "42.23472",
    "LONGITUDE": "-85.55194",
    "NAME": "KALAMAZOO BATTLE CREEK INTERNATIONAL AIRPORT, MI US",
    "PRCP": "101.8",
    "TAVG": "21.51"
  },
  {
    "STATION": "GME00129910",
    "DATE": "2018-06",
    "LATITUDE": "50.0367",
    "LONGITUDE": "7.3056",
    "NAME": "BLANKENRATH, GM",
    "PRCP": "20.2",
    "TAVG": "16.31"
  },
  {
    "STATION": "USW00024126",
    "DATE": "2018-06",
    "LATITUDE": "41.19611",
    "LONGITUDE": "-112.01139",
    "NAME": "OGDEN HINKLEY AIRPORT, UT US",
    "PRCP": "3.8",
    "TAVG": "21.57"
  },
  {
    "STATION": "USS0014F04S",
    "DATE": "2018-06",
    "LATITUDE": "43.8",
    "LONGITUDE": "-114.85",
    "NAME": "VIENNA MINE, ID US",
    "PRCP": "50.7",
    "TAVG": "9.12"
  },
  {
    "STATION": "ITM00016480",
    "DATE": "2018-06",
    "LATITUDE": "36.683",
    "LONGITUDE": "15.133",
    "NAME": "COZZO SPADARO, IT",
    "PRCP": "16.0",
    "TAVG": "23.38"
  },
  {
    "STATION": "SPE00156054",
    "DATE": "2018-06",
    "LATITUDE": "41.6128",
    "LONGITUDE": "2.1681",
    "NAME": "CALDES DE MONTBUI, SP",
    "PRCP": "43.6",
    "TAVG": "21.47"
  },
  {
    "STATION": "FIE00144522",
    "DATE": "2018-06",
    "LATITUDE": "63.4453",
    "LONGITUDE": "24.4478",
    "NAME": "HALSUA KANALA PUROLA, FI",
    "PRCP": "45.2",
    "TAVG": "11.70"
  },
  {
    "STATION": "USW00024132",
    "DATE": "2018-06",
    "LATITUDE": "45.788",
    "LONGITUDE": "-111.1608",
    "NAME": "BOZEMAN GALLATIN FIELD AIRPORT, MT US",
    "PRCP": "98.1",
    "TAVG": "15.37"
  },
  {
    "STATION": "USW00094197",
    "DATE": "2018-06",
    "LATITUDE": "48.464444",
    "LONGITUDE": "-119.516944",
    "NAME": "OMAK, WA US",
    "PRCP": "5.7",
    "TAVG": "18.03"
  },
  {
    "STATION": "USW00093820",
    "DATE": "2018-06",
    "LATITUDE": "38.0408",
    "LONGITUDE": "-84.6058",
    "NAME": "LEXINGTON BLUEGRASS AIRPORT, KY US",
    "PRCP": "110.3",
    "TAVG": "24.34"
  },
  {
    "STATION": "USW00094008",
    "DATE": "2018-06",
    "LATITUDE": "48.2138",
    "LONGITUDE": "-106.6214",
    "NAME": "GLASGOW INTERNATIONAL AIRPORT, MT US",
    "PRCP": "41.3",
    "TAVG": "19.50"
  },
  {
    "STATION": "SWE00139068",
    "DATE": "2018-06",
    "LATITUDE": "59.66",
    "LONGITUDE": "14.18",
    "NAME": "DAGLOSEN A, SW",
    "PRCP": "46.0",
    "TAVG": "15.65"
  },
  {
    "STATION": "USS0018E18S",
    "DATE": "2018-06",
    "LATITUDE": "44.21",
    "LONGITUDE": "-118.64",
    "NAME": "LAKE CREEK RANGER STATION, OR US",
    "PRCP": "22.9",
    "TAVG": "11.33"
  },
  {
    "STATION": "ASN00092012",
    "DATE": "2018-06",
    "LATITUDE": "-41.6428",
    "LONGITUDE": "147.9664",
    "NAME": "FINGAL LEGGE STREET, AS",
    "PRCP": "48.0",
    "TAVG": "7.33"
  },
  {
    "STATION": "GME00102388",
    "DATE": "2018-06",
    "LATITUDE": "48.8283",
    "LONGITUDE": "12.5603",
    "NAME": "STRAUBING, GM",
    "PRCP": "92.3",
    "TAVG": "18.65"
  },
  {
    "STATION": "GM000004155",
    "DATE": "2018-06",
    "LATITUDE": "47.4219",
    "LONGITUDE": "10.9867",
    "NAME": "ZUGSPITZE, GM",
    "PRCP": "142.5",
    "TAVG": "2.28"
  },
  {
    "STATION": "NOE00133110",
    "DATE": "2018-06",
    "LATITUDE": "69.9775",
    "LONGITUDE": "23.3581",
    "NAME": "ALTA LUFTHAVN, NO",
    "PRCP": "38.3",
    "TAVG": "9.73"
  },
  {
    "STATION": "USS0049L14S",
    "DATE": "2018-06",
    "LATITUDE": "60.26",
    "LONGITUDE": "-149.34",
    "NAME": "GROUSE CREEK DIVIDE, AK US",
    "PRCP": "93.8",
    "TAVG": "10.34"
  },
  {
    "STATION": "SWE00138362",
    "DATE": "2018-06",
    "LATITUDE": "58.09",
    "LONGITUDE": "11.33",
    "NAME": "MASESKAR A, SW",
    "PRCP": "39.7",
    "TAVG": "17.22"
  },
  {
    "STATION": "USS0023B18S",
    "DATE": "2018-06",
    "LATITUDE": "47.71",
    "LONGITUDE": "-123.46",
    "NAME": "BUCKINGHORSE, WA US",
    "PRCP": "91.4",
    "TAVG": "8.82"
  },
  {
    "STATION": "KZ000035563",
    "DATE": "2018-06",
    "LATITUDE": "48.65",
    "LONGITUDE": "67.0",
    "NAME": "ULUTAU, KZ",
    "PRCP": "",
    "TAVG": "18.25"
  },
  {
    "STATION": "USW00093773",
    "DATE": "2018-06",
    "LATITUDE": "36.9827",
    "LONGITUDE": "-77.0012",
    "NAME": "WAKEFIELD MUNICIPAL AIRPORT, VA US",
    "PRCP": "145.3",
    "TAVG": "25.08"
  },
  {
    "STATION": "ASN00014277",
    "DATE": "2018-06",
    "LATITUDE": "-12.635",
    "LONGITUDE": "130.3725",
    "NAME": "DUM IN MIRRIE AWS, AS",
    "PRCP": "0.0",
    "TAVG": "24.74"
  },
  {
    "STATION": "USW00024091",
    "DATE": "2018-06",
    "LATITUDE": "40.51",
    "LONGITUDE": "-101.62",
    "NAME": "IMPERIAL MUNICIPAL AIRPORT, NE US",
    "PRCP": "38.1",
    "TAVG": "23.37"
  },
  {
    "STATION": "TUM00017250",
    "DATE": "2018-06",
    "LATITUDE": "37.967",
    "LONGITUDE": "34.683",
    "NAME": "NIGDE, TU",
    "PRCP": "42.8",
    "TAVG": "20.87"
  },
  {
    "STATION": "USS0007F02S",
    "DATE": "2018-06",
    "LATITUDE": "43.63",
    "LONGITUDE": "-107.18",
    "NAME": "MIDDLE POWDER, WY US",
    "PRCP": "76.2",
    "TAVG": "13.30"
  },
  {
    "STATION": "SWE00139732",
    "DATE": "2018-06",
    "LATITUDE": "62.05",
    "LONGITUDE": "14.41",
    "NAME": "SVEG A, SW",
    "PRCP": "38.4",
    "TAVG": "13.00"
  },
  {
    "STATION": "USW00094746",
    "DATE": "2018-06",
    "LATITUDE": "42.2706",
    "LONGITUDE": "-71.8731",
    "NAME": "WORCESTER, MA US",
    "PRCP": "102.1",
    "TAVG": "18.01"
  },
  {
    "STATION": "USW00093997",
    "DATE": "2018-06",
    "LATITUDE": "38.87611",
    "LONGITUDE": "-98.80917",
    "NAME": "RUSSELL MUNICIPAL AIRPORT, KS US",
    "PRCP": "82.8",
    "TAVG": "26.62"
  },
  {
    "STATION": "FRM00007535",
    "DATE": "2018-06",
    "LATITUDE": "44.745",
    "LONGITUDE": "1.3967",
    "NAME": "GOURDON, FR",
    "PRCP": "100.5",
    "TAVG": "19.68"
  },
  {
    "STATION": "SPE00156108",
    "DATE": "2018-06",
    "LATITUDE": "41.6756",
    "LONGITUDE": "1.2958",
    "NAME": "CERVERA, SP",
    "PRCP": "33.0",
    "TAVG": "20.18"
  },
  {
    "STATION": "USW00023067",
    "DATE": "2018-06",
    "LATITUDE": "38.0494",
    "LONGITUDE": "-103.5122",
    "NAME": "LA JUNTA MUNICIPAL AIRPORT, CO US",
    "PRCP": "3.0",
    "TAVG": "26.28"
  },
  {
    "STATION": "USW00014813",
    "DATE": "2018-06",
    "LATITUDE": "41.0375",
    "LONGITUDE": "-81.46417",
    "NAME": "AKRON FULTON INTERNATIONAL AIRPORT, OH US",
    "PRCP": "41.5",
    "TAVG": "21.95"
  },
  {
    "STATION": "ASN00039326",
    "DATE": "2018-06",
    "LATITUDE": "-23.8697",
    "LONGITUDE": "151.2214",
    "NAME": "GLADSTONE AIRPORT, AS",
    "PRCP": "2.8",
    "TAVG": "18.68"
  },
  {
    "STATION": "USW00094961",
    "DATE": "2018-06",
    "LATITUDE": "48.71667",
    "LONGITUDE": "-94.6",
    "NAME": "BAUDETTE INTERNATIONAL AIRPORT, MN US",
    "PRCP": "98.7",
    "TAVG": "18.28"
  },
  {
    "STATION": "GME00111445",
    "DATE": "2018-06",
    "LATITUDE": "52.4683",
    "LONGITUDE": "13.4039",
    "NAME": "BERLIN TEMPELHOF, GM",
    "PRCP": "33.9",
    "TAVG": "19.98"
  },
  {
    "STATION": "NOE00111372",
    "DATE": "2018-06",
    "LATITUDE": "77.8831",
    "LONGITUDE": "16.7167",
    "NAME": "SVEAGRUVA, NO",
    "PRCP": "",
    "TAVG": "3.75"
  },
  {
    "STATION": "SWE00140554",
    "DATE": "2018-06",
    "LATITUDE": "65.5431",
    "LONGITUDE": "22.1192",
    "NAME": "LULEA FLYGPLATS, SW",
    "PRCP": "84.6",
    "TAVG": "12.44"
  },
  {
    "STATION": "USW00094949",
    "DATE": "2018-06",
    "LATITUDE": "40.6005",
    "LONGITUDE": "-98.4258",
    "NAME": "HASTINGS MUNICIPAL AIRPORT, NE US",
    "PRCP": "150.1",
    "TAVG": "24.44"
  },
  {
    "STATION": "ASN00064009",
    "DATE": "2018-06",
    "LATITUDE": "-32.0159",
    "LONGITUDE": "149.3964",
    "NAME": "DUNEDOO POST OFFICE, AS",
    "PRCP": "25.0",
    "TAVG": "10.39"
  },
  {
    "STATION": "NOE00156763",
    "DATE": "2018-06",
    "LATITUDE": "68.6481",
    "LONGITUDE": "15.2828",
    "NAME": "SORTLAND KLEIVA, NO",
    "PRCP": "160.1",
    "TAVG": "8.47"
  },
  {
    "STATION": "SWE00137910",
    "DATE": "2018-06",
    "LATITUDE": "56.92",
    "LONGITUDE": "18.1664",
    "NAME": "HOBURG, SW",
    "PRCP": "6.5",
    "TAVG": "16.41"
  },
  {
    "STATION": "FIE00142741",
    "DATE": "2018-06",
    "LATITUDE": "60.6464",
    "LONGITUDE": "23.8092",
    "NAME": "SOMERO SALKOLA, FI",
    "PRCP": "52.8",
    "TAVG": "14.18"
  },
  {
    "STATION": "USS0014F12S",
    "DATE": "2018-06",
    "LATITUDE": "43.87",
    "LONGITUDE": "-114.71",
    "NAME": "GALENA SUMMIT, ID US",
    "PRCP": "63.6",
    "TAVG": "9.24"
  },
  {
    "STATION": "USW00024046",
    "DATE": "2018-06",
    "LATITUDE": "40.49278",
    "LONGITUDE": "-107.52417",
    "NAME": "CRAIG MOFFAT CO AIRPORT, CO US",
    "PRCP": "2.9",
    "TAVG": "17.36"
  },
  {
    "STATION": "USS0013C03S",
    "DATE": "2018-06",
    "LATITUDE": "46.24",
    "LONGITUDE": "-113.77",
    "NAME": "SKALKAHO SUMMIT, MT US",
    "PRCP": "137.3",
    "TAVG": "8.58"
  },
  {
    "STATION": "SPE00120539",
    "DATE": "2018-06",
    "LATITUDE": "40.9258",
    "LONGITUDE": "-1.2931",
    "NAME": "CALAMOCHA, SP",
    "PRCP": "56.4",
    "TAVG": "18.37"
  },
  {
    "STATION": "USS0021F22S",
    "DATE": "2018-06",
    "LATITUDE": "43.23",
    "LONGITUDE": "-121.81",
    "NAME": "CHEMULT ALTERNATE, OR US",
    "PRCP": "7.5",
    "TAVG": "12.50"
  },
  {
    "STATION": "ASN00052020",
    "DATE": "2018-06",
    "LATITUDE": "-28.9786",
    "LONGITUDE": "148.9899",
    "NAME": "MUNGINDI POST OFFICE, AS",
    "PRCP": "8.0",
    "TAVG": "13.62"
  },
  {
    "STATION": "SWM00002468",
    "DATE": "2018-06",
    "LATITUDE": "56.85",
    "LONGITUDE": "14.83",
    "NAME": "VAXJO A, SW",
    "PRCP": "16.2",
    "TAVG": "17.21"
  },
  {
    "STATION": "USS0016H02S",
    "DATE": "2018-06",
    "LATITUDE": "41.55",
    "LONGITUDE": "-116.01",
    "NAME": "JACK CREEK UPPER, NV US",
    "PRCP": "7.6",
    "TAVG": "12.90"
  },
  {
    "STATION": "USW00096409",
    "DATE": "2018-06",
    "LATITUDE": "68.6483",
    "LONGITUDE": "-149.3986",
    "NAME": "TOOLIK LAKE 5 ENE, AK US",
    "PRCP": "36.9",
    "TAVG": "5.31"
  },
  {
    "STATION": "USW00003162",
    "DATE": "2018-06",
    "LATITUDE": "36.92611",
    "LONGITUDE": "-111.44778",
    "NAME": "PAGE MUNICIPAL AIRPORT, AZ US",
    "PRCP": "0.3",
    "TAVG": "28.77"
  },
  {
    "STATION": "SWE00138606",
    "DATE": "2018-06",
    "LATITUDE": "58.71",
    "LONGITUDE": "13.82",
    "NAME": "MARIESTAD, SW",
    "PRCP": "70.0",
    "TAVG": "17.94"
  },
  {
    "STATION": "GME00131554",
    "DATE": "2018-06",
    "LATITUDE": "50.0589",
    "LONGITUDE": "10.2983",
    "NAME": "SCHONUNGEN MAINBERG, GM",
    "PRCP": "42.9",
    "TAVG": "18.86"
  },
  {
    "STATION": "USW00094236",
    "DATE": "2018-06",
    "LATITUDE": "42.14694",
    "LONGITUDE": "-121.72417",
    "NAME": "KLAMATH FALLS INTERNATIONAL AIRPORT, OR US",
    "PRCP": "9.8",
    "TAVG": "15.20"
  },
  {
    "STATION": "USS0007K06S",
    "DATE": "2018-06",
    "LATITUDE": "39.05",
    "LONGITUDE": "-107.87",
    "NAME": "PARK RESERVOIR, CO US",
    "PRCP": "5.1",
    "TAVG": "12.45"
  },
  {
    "STATION": "USW00063872",
    "DATE": "2018-06",
    "LATITUDE": "31.95139",
    "LONGITUDE": "-85.12889",
    "NAME": "EUFAULA WEEDON FIELD AIRPORT, AL US",
    "PRCP": "98.0",
    "TAVG": "27.59"
  },
  {
    "STATION": "ASN00018115",
    "DATE": "2018-06",
    "LATITUDE": "-35.3365",
    "LONGITUDE": "136.1174",
    "NAME": "NEPTUNE ISLAND, AS",
    "PRCP": "60.4",
    "TAVG": "14.13"
  },
  {
    "STATION": "USS0006M17S",
    "DATE": "2018-06",
    "LATITUDE": "37.48",
    "LONGITUDE": "-106.8",
    "NAME": "WOLF CREEK SUMMIT, CO US",
    "PRCP": "12.6",
    "TAVG": "13.81"
  },
  {
    "STATION": "FIE00145562",
    "DATE": "2018-06",
    "LATITUDE": "64.2975",
    "LONGITUDE": "30.17",
    "NAME": "KUHMO KALLIOJOKI, FI",
    "PRCP": "93.0",
    "TAVG": "11.88"
  },
  {
    "STATION": "USW00063899",
    "DATE": "2018-06",
    "LATITUDE": "31.1449",
    "LONGITUDE": "-87.0518",
    "NAME": "BREWTON 3 NNE, AL US",
    "PRCP": "220.1",
    "TAVG": "26.18"
  },
  {
    "STATION": "RSM00023305",
    "DATE": "2018-06",
    "LATITUDE": "66.25",
    "LONGITUDE": "52.583",
    "NAME": "OKUNEV NOS, RS",
    "PRCP": "24.9",
    "TAVG": "10.19"
  },
  {
    "STATION": "USW00012912",
    "DATE": "2018-06",
    "LATITUDE": "28.8614",
    "LONGITUDE": "-96.9303",
    "NAME": "VICTORIA REGIONAL AIRPORT, TX US",
    "PRCP": "213.3",
    "TAVG": "29.35"
  },
  {
    "STATION": "USW00023271",
    "DATE": "2018-06",
    "LATITUDE": "38.5552",
    "LONGITUDE": "-121.4183",
    "NAME": "SACRAMENTO 5 ESE, CA US",
    "PRCP": "0.0",
    "TAVG": "23.97"
  },
  {
    "STATION": "FIE00146057",
    "DATE": "2018-06",
    "LATITUDE": "65.5739",
    "LONGITUDE": "28.2481",
    "NAME": "TAIVALKOSKI KK KAUPPATIE, FI",
    "PRCP": "73.7",
    "TAVG": "10.74"
  },
  {
    "STATION": "USW00025628",
    "DATE": "2018-06",
    "LATITUDE": "56.6",
    "LONGITUDE": "-169.565",
    "NAME": "ST GEORGE ISLAND AIRPORT, AK US",
    "PRCP": "32.8",
    "TAVG": "7.35"
  },
  {
    "STATION": "USW00023259",
    "DATE": "2018-06",
    "LATITUDE": "36.5881",
    "LONGITUDE": "-121.8453",
    "NAME": "MONTEREY PENINSUL AIRPORT, CA US",
    "PRCP": "0.0",
    "TAVG": "15.12"
  },
  {
    "STATION": "BLM00085123",
    "DATE": "2018-06",
    "LATITUDE": "-13.762",
    "LONGITUDE": "-65.435",
    "NAME": "SANTA ANA DEL YACUMA, BL",
    "PRCP": "",
    "TAVG": "22.54"
  },
  {
    "STATION": "SPE00156450",
    "DATE": "2018-06",
    "LATITUDE": "42.4353",
    "LONGITUDE": "3.1658",
    "NAME": "PORTBOU, SP",
    "PRCP": "28.0",
    "TAVG": "22.55"
  },
  {
    "STATION": "FIE00144132",
    "DATE": "2018-06",
    "LATITUDE": "61.8017",
    "LONGITUDE": "29.3181",
    "NAME": "PUNKAHARJU LAUKANSAARI, FI",
    "PRCP": "32.2",
    "TAVG": "14.31"
  },
  {
    "STATION": "ASN00009965",
    "DATE": "2018-06",
    "LATITUDE": "-33.3567",
    "LONGITUDE": "115.6447",
    "NAME": "BUNBURY, AS",
    "PRCP": "178.0",
    "TAVG": "12.88"
  },
  {
    "STATION": "USS0005M07S",
    "DATE": "2018-06",
    "LATITUDE": "37.33",
    "LONGITUDE": "-105.07",
    "NAME": "APISHAPA, CO US",
    "PRCP": "7.6",
    "TAVG": "15.49"
  },
  {
    "STATION": "RSM00034123",
    "DATE": "2018-06",
    "LATITUDE": "51.7",
    "LONGITUDE": "39.2167",
    "NAME": "VORONEZ, RS",
    "PRCP": "34.6",
    "TAVG": "18.69"
  },
  {
    "STATION": "USS0042M01S",
    "DATE": "2018-06",
    "LATITUDE": "61.35",
    "LONGITUDE": "-142.71",
    "NAME": "MAY CREEK, AK US",
    "PRCP": "50.7",
    "TAVG": "11.28"
  },
  {
    "STATION": "ASN00073007",
    "DATE": "2018-06",
    "LATITUDE": "-34.9997",
    "LONGITUDE": "148.5984",
    "NAME": "BURRINJUCK DAM, AS",
    "PRCP": "90.6",
    "TAVG": "8.57"
  },
  {
    "STATION": "SF000508870",
    "DATE": "2018-06",
    "LATITUDE": "-33.283",
    "LONGITUDE": "23.5",
    "NAME": "WILLOWMORE, SF",
    "PRCP": "",
    "TAVG": "11.73"
  },
  {
    "STATION": "GME00102177",
    "DATE": "2018-06",
    "LATITUDE": "54.1764",
    "LONGITUDE": "7.8931",
    "NAME": "HELGOLAND, GM",
    "PRCP": "10.7",
    "TAVG": "15.73"
  },
  {
    "STATION": "USW00026451",
    "DATE": "2018-06",
    "LATITUDE": "61.169",
    "LONGITUDE": "-150.0278",
    "NAME": "ANCHORAGE TED STEVENS INTERNATIONAL AIRPORT, AK US",
    "PRCP": "28.3",
    "TAVG": "13.63"
  },
  {
    "STATION": "USW00054789",
    "DATE": "2018-06",
    "LATITUDE": "41.13889",
    "LONGITUDE": "-75.37944",
    "NAME": "MOUNT POCONO POCONO MOUNTAINS MUNICIPAL AIRPORT, PA US",
    "PRCP": "138.1",
    "TAVG": "17.28"
  },
  {
    "STATION": "USW00012904",
    "DATE": "2018-06",
    "LATITUDE": "26.22806",
    "LONGITUDE": "-97.65417",
    "NAME": "HARLINGEN RIO GRANDE VALLEY INTERNATIONAL AIRPORT, TX US",
    "PRCP": "273.4",
    "TAVG": "30.06"
  },
  {
    "STATION": "USW00023273",
    "DATE": "2018-06",
    "LATITUDE": "34.8994",
    "LONGITUDE": "-120.4486",
    "NAME": "SANTA MARIA PUBLIC AIRPORT, CA US",
    "PRCP": "0.0",
    "TAVG": "16.57"
  },
  {
    "STATION": "USS0022F45S",
    "DATE": "2018-06",
    "LATITUDE": "43.23",
    "LONGITUDE": "-122.43",
    "NAME": "TOKETEE AIRSTRIP, OR US",
    "PRCP": "48.3",
    "TAVG": "13.94"
  },
  {
    "STATION": "BLM00085109",
    "DATE": "2018-06",
    "LATITUDE": "-13.3",
    "LONGITUDE": "-64.7",
    "NAME": "SAN RAMON, BL",
    "PRCP": "",
    "TAVG": "22.93"
  },
  {
    "STATION": "USW00004141",
    "DATE": "2018-06",
    "LATITUDE": "43.2718",
    "LONGITUDE": "-124.3186",
    "NAME": "COOS BAY 8 SW, OR US",
    "PRCP": "21.2",
    "TAVG": "12.70"
  },
  {
    "STATION": "USS0020H02S",
    "DATE": "2018-06",
    "LATITUDE": "41.89",
    "LONGITUDE": "-120.75",
    "NAME": "CROWDER FLAT, CA US",
    "PRCP": "15.3",
    "TAVG": "13.88"
  },
  {
    "STATION": "GME00131218",
    "DATE": "2018-06",
    "LATITUDE": "50.2",
    "LONGITUDE": "7.8656",
    "NAME": "NASTATTEN, GM",
    "PRCP": "38.3",
    "TAVG": "17.55"
  },
  {
    "STATION": "USS0021C40S",
    "DATE": "2018-06",
    "LATITUDE": "46.93",
    "LONGITUDE": "-121.95",
    "NAME": "MOWICH, WA US",
    "PRCP": "81.1",
    "TAVG": "11.80"
  },
  {
    "STATION": "SWE00138638",
    "DATE": "2018-06",
    "LATITUDE": "58.81",
    "LONGITUDE": "15.13",
    "NAME": "ZINKGRUVAN, SW",
    "PRCP": "59.8",
    "TAVG": "17.00"
  },
  {
    "STATION": "USW00063870",
    "DATE": "2018-06",
    "LATITUDE": "31.0425",
    "LONGITUDE": "-86.31167",
    "NAME": "FLORALA MUNICIPAL AIRPORT, AL US",
    "PRCP": "122.1",
    "TAVG": "27.30"
  },
  {
    "STATION": "SIE00114856",
    "DATE": "2018-06",
    "LATITUDE": "45.6",
    "LONGITUDE": "15.2",
    "NAME": "CRNOMELJ DOBLICE, SI",
    "PRCP": "183.6",
    "TAVG": "20.75"
  },
  {
    "STATION": "FIE00141935",
    "DATE": "2018-06",
    "LATITUDE": "60.3867",
    "LONGITUDE": "22.5544",
    "NAME": "KAARINA YLTOINEN, FI",
    "PRCP": "27.8",
    "TAVG": "14.46"
  },
  {
    "STATION": "MXM00076840",
    "DATE": "2018-06",
    "LATITUDE": "28.95",
    "LONGITUDE": "-107.8167",
    "NAME": "TEMOSACHI OBS, MX",
    "PRCP": "198.8",
    "TAVG": "28.55"
  },
  {
    "STATION": "USW00026492",
    "DATE": "2018-06",
    "LATITUDE": "60.785",
    "LONGITUDE": "-148.83889",
    "NAME": "PORTAGE GLACIER VISITOR CENTER, AK US",
    "PRCP": "226.3",
    "TAVG": "10.69"
  },
  {
    "STATION": "VQW00011624",
    "DATE": "2018-06",
    "LATITUDE": "17.6997",
    "LONGITUDE": "-64.8125",
    "NAME": "CHRISTIANSTED HAMILTON FIELD AIRPORT, VI US",
    "PRCP": "59.7",
    "TAVG": "28.60"
  },
  {
    "STATION": "EN000026134",
    "DATE": "2018-06",
    "LATITUDE": "58.967",
    "LONGITUDE": "24.733",
    "NAME": "KUUSIKU, EN",
    "PRCP": "",
    "TAVG": "14.40"
  },
  {
    "STATION": "SWE00139268",
    "DATE": "2018-06",
    "LATITUDE": "60.14",
    "LONGITUDE": "14.4",
    "NAME": "FREDRIKSBERG, SW",
    "PRCP": "60.7",
    "TAVG": "15.02"
  },
  {
    "STATION": "SWE00138610",
    "DATE": "2018-06",
    "LATITUDE": "58.72",
    "LONGITUDE": "15.03",
    "NAME": "KETTSTAKA A, SW",
    "PRCP": "50.9",
    "TAVG": "16.64"
  },
  {
    "STATION": "USW00063858",
    "DATE": "2018-06",
    "LATITUDE": "32.4567",
    "LONGITUDE": "-87.2422",
    "NAME": "SELMA 13 WNW, AL US",
    "PRCP": "61.0",
    "TAVG": "26.39"
  },
  {
    "STATION": "USS0015J09S",
    "DATE": "2018-06",
    "LATITUDE": "40.38",
    "LONGITUDE": "-115.53",
    "NAME": "GREEN MOUNTAIN, NV US",
    "PRCP": "0.0",
    "TAVG": "13.20"
  },
  {
    "STATION": "USW00003160",
    "DATE": "2018-06",
    "LATITUDE": "36.6206",
    "LONGITUDE": "-116.0278",
    "NAME": "MERCURY DESERT ROCK AIRPORT, NV US",
    "PRCP": "0.0",
    "TAVG": "28.36"
  },
  {
    "STATION": "ASN00009998",
    "DATE": "2018-06",
    "LATITUDE": "-34.9469",
    "LONGITUDE": "116.7222",
    "NAME": "NORTH WALPOLE, AS",
    "PRCP": "106.2",
    "TAVG": "13.23"
  },
  {
    "STATION": "EN000026120",
    "DATE": "2018-06",
    "LATITUDE": "58.95",
    "LONGITUDE": "23.817",
    "NAME": "LAANE NIGULA, EN",
    "PRCP": "",
    "TAVG": "14.45"
  },
  {
    "STATION": "SWE00140230",
    "DATE": "2018-06",
    "LATITUDE": "64.0",
    "LONGITUDE": "14.67",
    "NAME": "ALMDALEN, SW",
    "PRCP": "39.8",
    "TAVG": "9.05"
  },
  {
    "STATION": "FR000007255",
    "DATE": "2018-06",
    "LATITUDE": "47.0592",
    "LONGITUDE": "2.3594",
    "NAME": "BOURGES, FR",
    "PRCP": "46.6",
    "TAVG": "20.14"
  },
  {
    "STATION": "USW00024044",
    "DATE": "2018-06",
    "LATITUDE": "42.0573",
    "LONGITUDE": "-102.8017",
    "NAME": "ALLIANCE MUNICIPAL AIRPORT ASOS, NE US",
    "PRCP": "64.2",
    "TAVG": "19.73"
  },
  {
    "STATION": "FIE00142025",
    "DATE": "2018-06",
    "LATITUDE": "59.8439",
    "LONGITUDE": "23.2517",
    "NAME": "HANKO TVARMINNE, FI",
    "PRCP": "28.6",
    "TAVG": "14.39"
  },
  {
    "STATION": "USW00014839",
    "DATE": "2018-06",
    "LATITUDE": "42.955",
    "LONGITUDE": "-87.9044",
    "NAME": "MILWAUKEE MITCHELL INTERNATIONAL AIRPORT, WI US",
    "PRCP": "142.9",
    "TAVG": "19.24"
  },
  {
    "STATION": "NOE00134682",
    "DATE": "2018-06",
    "LATITUDE": "64.4014",
    "LONGITUDE": "10.455",
    "NAME": "BUHOLMRASA FYR, NO",
    "PRCP": "",
    "TAVG": "10.28"
  },
  {
    "STATION": "RSM00025206",
    "DATE": "2018-06",
    "LATITUDE": "67.45",
    "LONGITUDE": "153.72",
    "NAME": "SREDHEKOLYMSK, RS",
    "PRCP": "16.1",
    "TAVG": "10.97"
  },
  {
    "STATION": "USW00023065",
    "DATE": "2018-06",
    "LATITUDE": "39.3672",
    "LONGITUDE": "-101.6932",
    "NAME": "GOODLAND RENNER FIELD, KS US",
    "PRCP": "117.7",
    "TAVG": "23.18"
  },
  {
    "STATION": "MXM00076471",
    "DATE": "2018-06",
    "LATITUDE": "23.633",
    "LONGITUDE": "-103.65",
    "NAME": "SOMBRERETE ZAC., MX",
    "PRCP": "50.4",
    "TAVG": "20.68"
  },
  {
    "STATION": "USS0019L41S",
    "DATE": "2018-06",
    "LATITUDE": "38.72",
    "LONGITUDE": "-119.89",
    "NAME": "BURNSIDE LAKE, CA US",
    "PRCP": "0.0",
    "TAVG": "10.23"
  },
  {
    "STATION": "USS0008G03S",
    "DATE": "2018-06",
    "LATITUDE": "42.57",
    "LONGITUDE": "-108.84",
    "NAME": "SOUTH PASS, WY US",
    "PRCP": "32.8",
    "TAVG": "11.39"
  },
  {
    "STATION": "USS0010J30S",
    "DATE": "2018-06",
    "LATITUDE": "40.58",
    "LONGITUDE": "-110.59",
    "NAME": "BROWN DUCK, UT US",
    "PRCP": "2.5",
    "TAVG": "11.42"
  },
  {
    "STATION": "IRM00040827",
    "DATE": "2018-06",
    "LATITUDE": "31.533",
    "LONGITUDE": "60.033",
    "NAME": "NEHBANDAN, IR",
    "PRCP": "0.0",
    "TAVG": "31.75"
  },
  {
    "STATION": "USW00094963",
    "DATE": "2018-06",
    "LATITUDE": "44.8321",
    "LONGITUDE": "-93.4705",
    "NAME": "MINNEAPOLIS FLYING CLOUD AIRPORT, MN US",
    "PRCP": "123.4",
    "TAVG": "22.03"
  },
  {
    "STATION": "USW00094988",
    "DATE": "2018-06",
    "LATITUDE": "42.11056",
    "LONGITUDE": "-92.91611",
    "NAME": "MARSHALLTOWN MUNICIPAL AIRPORT, IA US",
    "PRCP": "192.9",
    "TAVG": "22.92"
  },
  {
    "STATION": "USW00093981",
    "DATE": "2018-06",
    "LATITUDE": "37.23545",
    "LONGITUDE": "-93.40121",
    "NAME": "SPRINGFIELD WEATHER FORECAST OFFICE, MO US",
    "PRCP": "120.9",
    "TAVG": "25.82"
  },
  {
    "STATION": "USW00093759",
    "DATE": "2018-06",
    "LATITUDE": "35.855",
    "LONGITUDE": "-77.89306",
    "NAME": "ROCKY MOUNT WILSON AIRPORT, NC US",
    "PRCP": "54.6",
    "TAVG": "25.88"
  },
  {
    "STATION": "USS0049M26S",
    "DATE": "2018-06",
    "LATITUDE": "61.79",
    "LONGITUDE": "-149.28",
    "NAME": "INDEPENDENCE MINE, AK US",
    "PRCP": "106.5",
    "TAVG": "5.99"
  },
  {
    "STATION": "USS0021C17S",
    "DATE": "2018-06",
    "LATITUDE": "46.91",
    "LONGITUDE": "-121.48",
    "NAME": "MORSE LAKE, WA US",
    "PRCP": "33.0",
    "TAVG": "7.75"
  },
  {
    "STATION": "ASN00079099",
    "DATE": "2018-06",
    "LATITUDE": "-37.0222",
    "LONGITUDE": "141.2657",
    "NAME": "EDENHOPE AIRPORT, AS",
    "PRCP": "55.8",
    "TAVG": "9.18"
  },
  {
    "STATION": "GME00131998",
    "DATE": "2018-06",
    "LATITUDE": "50.6208",
    "LONGITUDE": "13.4831",
    "NAME": "DEUTSCHNEUDORF BRUDERWIESE, GM",
    "PRCP": "91.6",
    "TAVG": "14.48"
  },
  {
    "STATION": "USS0006H22S",
    "DATE": "2018-06",
    "LATITUDE": "41.0",
    "LONGITUDE": "-106.91",
    "NAME": "WHISKEY PARK, WY US",
    "PRCP": "17.7",
    "TAVG": "11.71"
  },
  {
    "STATION": "ASN00010007",
    "DATE": "2018-06",
    "LATITUDE": "-30.8081",
    "LONGITUDE": "117.8603",
    "NAME": "BENCUBBIN, AS",
    "PRCP": "36.7",
    "TAVG": "12.14"
  },
  {
    "STATION": "KZ000038051",
    "DATE": "2018-06",
    "LATITUDE": "44.883",
    "LONGITUDE": "63.167",
    "NAME": "KARAK, KZ",
    "PRCP": "",
    "TAVG": "24.53"
  },
  {
    "STATION": "GME00131026",
    "DATE": "2018-06",
    "LATITUDE": "53.2153",
    "LONGITUDE": "10.4717",
    "NAME": "WENDISCH EVERN, GM",
    "PRCP": "24.5",
    "TAVG": "18.18"
  },
  {
    "STATION": "USW00093765",
    "DATE": "2018-06",
    "LATITUDE": "34.73258",
    "LONGITUDE": "-76.65659",
    "NAME": "BEAUFORT MICHAEL J SMITH FIELD, NC US",
    "PRCP": "157.7",
    "TAVG": "25.85"
  },
  {
    "STATION": "ASN00090175",
    "DATE": "2018-06",
    "LATITUDE": "-38.3906",
    "LONGITUDE": "142.2347",
    "NAME": "PORT FAIRY AWS, AS",
    "PRCP": "100.2",
    "TAVG": "10.51"
  },
  {
    "STATION": "ASN00009542",
    "DATE": "2018-06",
    "LATITUDE": "-33.6825",
    "LONGITUDE": "121.8275",
    "NAME": "ESPERANCE AERO, AS",
    "PRCP": "52.4",
    "TAVG": "13.42"
  },
  {
    "STATION": "GME00102201",
    "DATE": "2018-06",
    "LATITUDE": "54.5294",
    "LONGITUDE": "11.0617",
    "NAME": "WESTERMARKELSDORF FEHMARN, GM",
    "PRCP": "28.6",
    "TAVG": "16.91"
  },
  {
    "STATION": "USS0010F30S",
    "DATE": "2018-06",
    "LATITUDE": "43.78",
    "LONGITUDE": "-110.93",
    "NAME": "GRAND TARGHEE, WY US",
    "PRCP": "71.1",
    "TAVG": "8.60"
  },
  {
    "STATION": "GME00125866",
    "DATE": "2018-06",
    "LATITUDE": "51.7269",
    "LONGITUDE": "11.5125",
    "NAME": "MEHRINGEN, GM",
    "PRCP": "5.1",
    "TAVG": "18.39"
  },
  {
    "STATION": "RSM00025428",
    "DATE": "2018-06",
    "LATITUDE": "65.23",
    "LONGITUDE": "160.53",
    "NAME": "OMOLON, RS",
    "PRCP": "29.2",
    "TAVG": "11.35"
  },
  {
    "STATION": "USW00093822",
    "DATE": "2018-06",
    "LATITUDE": "39.8447",
    "LONGITUDE": "-89.6839",
    "NAME": "SPRINGFIELD ABRAHAM LINCOLN CAPITAL AIRPORT, IL US",
    "PRCP": "109.1",
    "TAVG": "25.02"
  },
  {
    "STATION": "SWE00140350",
    "DATE": "2018-06",
    "LATITUDE": "64.5056",
    "LONGITUDE": "14.2239",
    "NAME": "GADDEDE A, SW",
    "PRCP": "50.6",
    "TAVG": "8.90"
  },
  {
    "STATION": "USW00024130",
    "DATE": "2018-06",
    "LATITUDE": "44.8428",
    "LONGITUDE": "-117.8086",
    "NAME": "BAKER CITY AIRPORT, OR US",
    "PRCP": "23.9",
    "TAVG": "15.70"
  },
  {
    "STATION": "USS0009S02S",
    "DATE": "2018-06",
    "LATITUDE": "33.92",
    "LONGITUDE": "-109.46",
    "NAME": "MAVERICK FORK, AZ US",
    "PRCP": "0.0",
    "TAVG": "15.66"
  },
  {
    "STATION": "SPE00119999",
    "DATE": "2018-06",
    "LATITUDE": "39.95",
    "LONGITUDE": "0.0714",
    "NAME": "CASTELLON, SP",
    "PRCP": "42.6",
    "TAVG": "23.71"
  },
  {
    "STATION": "NOE00105503",
    "DATE": "2018-06",
    "LATITUDE": "60.5669",
    "LONGITUDE": "9.1333",
    "NAME": "NESBYEN TODOKK, NO",
    "PRCP": "60.5",
    "TAVG": "16.49"
  },
  {
    "STATION": "USS0015H24S",
    "DATE": "2018-06",
    "LATITUDE": "41.66",
    "LONGITUDE": "-115.32",
    "NAME": "DRAW CREEK, NV US",
    "PRCP": "22.9",
    "TAVG": "13.09"
  },
  {
    "STATION": "RSM00025400",
    "DATE": "2018-06",
    "LATITUDE": "65.73",
    "LONGITUDE": "150.9",
    "NAME": "ZYRJANKA, RS",
    "PRCP": "5.7",
    "TAVG": "13.24"
  },
  {
    "STATION": "USW00013978",
    "DATE": "2018-06",
    "LATITUDE": "33.4963",
    "LONGITUDE": "-90.0866",
    "NAME": "GREENWOOD LEFLORE AIRPORT, MS US",
    "PRCP": "61.3",
    "TAVG": "27.02"
  },
  {
    "STATION": "USS0022F04S",
    "DATE": "2018-06",
    "LATITUDE": "43.61",
    "LONGITUDE": "-122.12",
    "NAME": "SALT CREEK FALLS, OR US",
    "PRCP": "66.0",
    "TAVG": "12.04"
  },
  {
    "STATION": "USW00094817",
    "DATE": "2018-06",
    "LATITUDE": "42.665",
    "LONGITUDE": "-83.41806",
    "NAME": "PONTIAC OAKLAND CO INTERNATIONAL AIRPORT, MI US",
    "PRCP": "58.6",
    "TAVG": "20.68"
  },
  {
    "STATION": "NOE00112080",
    "DATE": "2018-06",
    "LATITUDE": "69.3",
    "LONGITUDE": "16.1497",
    "NAME": "ANDOYA, NO",
    "PRCP": "190.9",
    "TAVG": "7.78"
  },
  {
    "STATION": "USS0006M21S",
    "DATE": "2018-06",
    "LATITUDE": "37.47",
    "LONGITUDE": "-106.54",
    "NAME": "GRAYBACK, CO US",
    "PRCP": "28.0",
    "TAVG": "11.10"
  },
  {
    "STATION": "USW00014742",
    "DATE": "2018-06",
    "LATITUDE": "44.4683",
    "LONGITUDE": "-73.1499",
    "NAME": "BURLINGTON INTERNATIONAL AIRPORT, VT US",
    "PRCP": "104.1",
    "TAVG": "18.81"
  },
  {
    "STATION": "SPE00156081",
    "DATE": "2018-06",
    "LATITUDE": "41.8306",
    "LONGITUDE": "1.8467",
    "NAME": "CASTELLNOU DE BAGES, SP",
    "PRCP": "98.0",
    "TAVG": "20.34"
  },
  {
    "STATION": "NO000005350",
    "DATE": "2018-06",
    "LATITUDE": "60.3883",
    "LONGITUDE": "11.5603",
    "NAME": "NORD ODAL, NO",
    "PRCP": "30.8",
    "TAVG": "16.52"
  },
  {
    "STATION": "USW00094624",
    "DATE": "2018-06",
    "LATITUDE": "41.6875",
    "LONGITUDE": "-69.99333",
    "NAME": "CHATHAM MUNICIPAL AIRPORT, MA US",
    "PRCP": "82.0",
    "TAVG": "17.55"
  },
  {
    "STATION": "ASN00081124",
    "DATE": "2018-06",
    "LATITUDE": "-36.0294",
    "LONGITUDE": "146.0306",
    "NAME": "YARRAWONGA, AS",
    "PRCP": "34.0",
    "TAVG": "8.95"
  },
  {
    "STATION": "USW00004237",
    "DATE": "2018-06",
    "LATITUDE": "47.5139",
    "LONGITUDE": "-123.812",
    "NAME": "QUINAULT 4 NE, WA US",
    "PRCP": "81.2",
    "TAVG": "14.15"
  },
  {
    "STATION": "USW00013993",
    "DATE": "2018-06",
    "LATITUDE": "39.7736",
    "LONGITUDE": "-94.9233",
    "NAME": "ST JOSEPH ROSECRANS MEMORIAL AIRPORT, MO US",
    "PRCP": "117.9",
    "TAVG": "25.56"
  },
  {
    "STATION": "USW00004223",
    "DATE": "2018-06",
    "LATITUDE": "48.5405",
    "LONGITUDE": "-121.446",
    "NAME": "DARRINGTON 21 NNE, WA US",
    "PRCP": "68.5",
    "TAVG": "14.96"
  },
  {
    "STATION": "SWE00138228",
    "DATE": "2018-06",
    "LATITUDE": "57.77",
    "LONGITUDE": "13.47",
    "NAME": "ULRICEHAMN, SW",
    "PRCP": "46.3",
    "TAVG": "16.33"
  },
  {
    "STATION": "USW00013987",
    "DATE": "2018-06",
    "LATITUDE": "37.15221",
    "LONGITUDE": "-94.49527",
    "NAME": "JOPLIN REGIONAL AIRPORT, MO US",
    "PRCP": "76.0",
    "TAVG": "26.38"
  },
  {
    "STATION": "SWE00139888",
    "DATE": "2018-06",
    "LATITUDE": "62.76",
    "LONGITUDE": "13.85",
    "NAME": "BORTNAN A, SW",
    "PRCP": "16.0",
    "TAVG": "10.76"
  },
  {
    "STATION": "RSM00025399",
    "DATE": "2018-06",
    "LATITUDE": "66.17",
    "LONGITUDE": "-169.8",
    "NAME": "MYS UELEN, RS",
    "PRCP": "4.1",
    "TAVG": "4.06"
  },
  {
    "STATION": "SZE00105086",
    "DATE": "2018-06",
    "LATITUDE": "46.2167",
    "LONGITUDE": "7.3331",
    "NAME": "SION 2, SZ",
    "PRCP": "25.8",
    "TAVG": "21.16"
  },
  {
    "STATION": "USW00014756",
    "DATE": "2018-06",
    "LATITUDE": "41.25306",
    "LONGITUDE": "-70.06083",
    "NAME": "NANTUCKET MEMORIAL AIRPORT, MA US",
    "PRCP": "109.4",
    "TAVG": "15.99"
  },
  {
    "STATION": "USS0005P08S",
    "DATE": "2018-06",
    "LATITUDE": "35.78",
    "LONGITUDE": "-105.54",
    "NAME": "WESNER SPRINGS, NM US",
    "PRCP": "22.9",
    "TAVG": "14.21"
  },
  {
    "STATION": "SZ000008440",
    "DATE": "2018-06",
    "LATITUDE": "46.25",
    "LONGITUDE": "6.1331",
    "NAME": "GENEVE COINTRIN, SZ",
    "PRCP": "93.3",
    "TAVG": "19.68"
  },
  {
    "STATION": "ASN00090015",
    "DATE": "2018-06",
    "LATITUDE": "-38.8556",
    "LONGITUDE": "143.5128",
    "NAME": "CAPE OTWAY LIGHTHOUSE, AS",
    "PRCP": "94.4",
    "TAVG": "11.08"
  },
  {
    "STATION": "USS0005N18S",
    "DATE": "2018-06",
    "LATITUDE": "36.19",
    "LONGITUDE": "-105.56",
    "NAME": "GALLEGOS PEAK, NM US",
    "PRCP": "17.8",
    "TAVG": "17.06"
  },
  {
    "STATION": "ASN00004106",
    "DATE": "2018-06",
    "LATITUDE": "-21.1756",
    "LONGITUDE": "119.7497",
    "NAME": "MARBLE BAR, AS",
    "PRCP": "31.6",
    "TAVG": "20.45"
  },
  {
    "STATION": "GME00130258",
    "DATE": "2018-06",
    "LATITUDE": "50.1331",
    "LONGITUDE": "8.3178",
    "NAME": "WIESBADEN AURINGEN, GM",
    "PRCP": "55.0",
    "TAVG": "18.80"
  },
  {
    "STATION": "GME00131146",
    "DATE": "2018-06",
    "LATITUDE": "52.9553",
    "LONGITUDE": "7.3192",
    "NAME": "DORPEN, GM",
    "PRCP": "41.5",
    "TAVG": "17.05"
  },
  {
    "STATION": "TI000038725",
    "DATE": "2018-06",
    "LATITUDE": "39.4",
    "LONGITUDE": "69.7",
    "NAME": "MADRUSKAT, TI",
    "PRCP": "",
    "TAVG": "16.02"
  },
  {
    "STATION": "UV000005522",
    "DATE": "2018-06",
    "LATITUDE": "10.33",
    "LONGITUDE": "-3.18",
    "NAME": "GAOUA, UV",
    "PRCP": "",
    "TAVG": "28.48"
  },
  {
    "STATION": "NOE00134286",
    "DATE": "2018-06",
    "LATITUDE": "59.5869",
    "LONGITUDE": "11.1658",
    "NAME": "ASKIM II, NO",
    "PRCP": "31.5",
    "TAVG": "16.45"
  },
  {
    "STATION": "RSM00034727",
    "DATE": "2018-06",
    "LATITUDE": "46.8",
    "LONGITUDE": "38.267",
    "NAME": "EJSK, RS",
    "PRCP": "49.1",
    "TAVG": "23.01"
  },
  {
    "STATION": "SPE00155991",
    "DATE": "2018-06",
    "LATITUDE": "41.3839",
    "LONGITUDE": "2.1675",
    "NAME": "BARCELONA EL RAVAL, SP",
    "PRCP": "12.9",
    "TAVG": "23.52"
  },
  {
    "STATION": "ASN00015590",
    "DATE": "2018-06",
    "LATITUDE": "-23.7951",
    "LONGITUDE": "133.889",
    "NAME": "ALICE SPRINGS AIRPORT, AS",
    "PRCP": "0.0",
    "TAVG": "11.86"
  },
  {
    "STATION": "SWE00140634",
    "DATE": "2018-06",
    "LATITUDE": "65.8797",
    "LONGITUDE": "20.13",
    "NAME": "VIDSEL, SW",
    "PRCP": "54.0",
    "TAVG": "11.88"
  },
  {
    "STATION": "NLE00152484",
    "DATE": "2018-06",
    "LATITUDE": "51.5256",
    "LONGITUDE": "3.8833",
    "NAME": "WILHELMINADORP, NL",
    "PRCP": "4.4",
    "TAVG": "17.05"
  },
  {
    "STATION": "USS0008T01S",
    "DATE": "2018-06",
    "LATITUDE": "32.92",
    "LONGITUDE": "-108.15",
    "NAME": "SIGNAL PEAK, NM US",
    "PRCP": "45.7",
    "TAVG": "19.90"
  },
  {
    "STATION": "NOE00109885",
    "DATE": "2018-06",
    "LATITUDE": "59.8558",
    "LONGITUDE": "10.4367",
    "NAME": "ASKER, NO",
    "PRCP": "45.0",
    "TAVG": "17.09"
  },
  {
    "STATION": "USW00021504",
    "DATE": "2018-06",
    "LATITUDE": "19.7191",
    "LONGITUDE": "-155.053",
    "NAME": "HILO INTERNATIONAL AIRPORT 87, HI US",
    "PRCP": "232.0",
    "TAVG": "24.61"
  },
  {
    "STATION": "USS0009E03S",
    "DATE": "2018-06",
    "LATITUDE": "44.03",
    "LONGITUDE": "-109.18",
    "NAME": "TIMBER CREEK, WY US",
    "PRCP": "33.0",
    "TAVG": "11.83"
  },
  {
    "STATION": "SWE00137494",
    "DATE": "2018-06",
    "LATITUDE": "55.38",
    "LONGITUDE": "12.82",
    "NAME": "FALSTERBO, SW",
    "PRCP": "5.0",
    "TAVG": "18.60"
  },
  {
    "STATION": "USS0010G22S",
    "DATE": "2018-06",
    "LATITUDE": "42.3",
    "LONGITUDE": "-110.68",
    "NAME": "INDIAN CREEK, WY US",
    "PRCP": "22.8",
    "TAVG": "11.07"
  },
  {
    "STATION": "NLE00152490",
    "DATE": "2018-06",
    "LATITUDE": "51.9606",
    "LONGITUDE": "4.4467",
    "NAME": "ROTTERDAM, NL",
    "PRCP": "20.9",
    "TAVG": "17.06"
  },
  {
    "STATION": "USS0019E03S",
    "DATE": "2018-06",
    "LATITUDE": "44.45",
    "LONGITUDE": "-119.93",
    "NAME": "DERR., OR US",
    "PRCP": "40.5",
    "TAVG": "10.71"
  },
  {
    "STATION": "HUM00012772",
    "DATE": "2018-06",
    "LATITUDE": "48.083",
    "LONGITUDE": "20.767",
    "NAME": "MISKOLC, HU",
    "PRCP": "117.5",
    "TAVG": "20.82"
  },
  {
    "STATION": "USS0015F09S",
    "DATE": "2018-06",
    "LATITUDE": "43.27",
    "LONGITUDE": "-115.35",
    "NAME": "CAMAS CREEK DIVIDE, ID US",
    "PRCP": "15.1",
    "TAVG": "13.55"
  },
  {
    "STATION": "ASN00011053",
    "DATE": "2018-06",
    "LATITUDE": "-32.2028",
    "LONGITUDE": "127.5297",
    "NAME": "RED ROCKS POINT, AS",
    "PRCP": "65.8",
    "TAVG": "14.23"
  },
  {
    "STATION": "ASN00005026",
    "DATE": "2018-06",
    "LATITUDE": "-22.2425",
    "LONGITUDE": "118.3358",
    "NAME": "WITTENOOM, AS",
    "PRCP": "88.6",
    "TAVG": "18.88"
  },
  {
    "STATION": "ASN00087031",
    "DATE": "2018-06",
    "LATITUDE": "-37.8565",
    "LONGITUDE": "144.7566",
    "NAME": "LAVERTON RAAF, AS",
    "PRCP": "36.4",
    "TAVG": "9.80"
  },
  {
    "STATION": "FIE00141855",
    "DATE": "2018-06",
    "LATITUDE": "60.1781",
    "LONGITUDE": "19.9894",
    "NAME": "JOMALA JOMALABY, FI",
    "PRCP": "26.1",
    "TAVG": "13.93"
  },
  {
    "STATION": "SWE00139452",
    "DATE": "2018-06",
    "LATITUDE": "60.72",
    "LONGITUDE": "17.16",
    "NAME": "GAVLE A, SW",
    "PRCP": "59.4",
    "TAVG": "15.11"
  },
  {
    "STATION": "SPE00156297",
    "DATE": "2018-06",
    "LATITUDE": "42.0803",
    "LONGITUDE": "1.9625",
    "NAME": "LA QUAR, SP",
    "PRCP": "82.5",
    "TAVG": "19.13"
  },
  {
    "STATION": "SPE00120467",
    "DATE": "2018-06",
    "LATITUDE": "28.4775",
    "LONGITUDE": "-16.3292",
    "NAME": "TENERIFE LOS RODEOS, SP",
    "PRCP": "8.9",
    "TAVG": "17.37"
  },
  {
    "STATION": "GME00131350",
    "DATE": "2018-06",
    "LATITUDE": "48.7706",
    "LONGITUDE": "9.875",
    "NAME": "SCHWABISCH GMUND WEILER, GM",
    "PRCP": "54.2",
    "TAVG": "17.86"
  },
  {
    "STATION": "GME00123754",
    "DATE": "2018-06",
    "LATITUDE": "54.5767",
    "LONGITUDE": "13.1056",
    "NAME": "HIDDENSEE VITTE, GM",
    "PRCP": "19.5",
    "TAVG": "17.67"
  },
  {
    "STATION": "HUE00100247",
    "DATE": "2018-06",
    "LATITUDE": "47.5108",
    "LONGITUDE": "19.0206",
    "NAME": "BUDAPEST, HU",
    "PRCP": "0.0",
    "TAVG": "22.84"
  },
  {
    "STATION": "USS0045L01S",
    "DATE": "2018-06",
    "LATITUDE": "60.55",
    "LONGITUDE": "-145.75",
    "NAME": "MOUNT EYAK, AK US",
    "PRCP": "342.8",
    "TAVG": "9.15"
  },
  {
    "STATION": "GME00131422",
    "DATE": "2018-06",
    "LATITUDE": "52.5083",
    "LONGITUDE": "11.8564",
    "NAME": "DEMKER, GM",
    "PRCP": "20.8",
    "TAVG": "19.10"
  },
  {
    "STATION": "USS0020D02S",
    "DATE": "2018-06",
    "LATITUDE": "45.99",
    "LONGITUDE": "-120.81",
    "NAME": "INDIAN ROCK, WA US",
    "PRCP": "12.7",
    "TAVG": "10.45"
  },
  {
    "STATION": "SWE00138016",
    "DATE": "2018-06",
    "LATITUDE": "57.23",
    "LONGITUDE": "12.7",
    "NAME": "KALLSJO, SW",
    "PRCP": "45.3",
    "TAVG": "16.69"
  },
  {
    "STATION": "AM000037959",
    "DATE": "2018-06",
    "LATITUDE": "39.2",
    "LONGITUDE": "46.433",
    "NAME": "KAPAN, AM",
    "PRCP": "59.2",
    "TAVG": "21.72"
  },
  {
    "STATION": "USS0010C09S",
    "DATE": "2018-06",
    "LATITUDE": "46.79",
    "LONGITUDE": "-110.68",
    "NAME": "DEADMAN CREEK, MT US",
    "PRCP": "126.9",
    "TAVG": "9.74"
  },
  {
    "STATION": "GQW00041415",
    "DATE": "2018-06",
    "LATITUDE": "13.48333",
    "LONGITUDE": "144.8",
    "NAME": "GUAM INTERNATIONAL AIRPORT, GU GQ",
    "PRCP": "138.0",
    "TAVG": "28.80"
  },
  {
    "STATION": "USS0050R04S",
    "DATE": "2018-06",
    "LATITUDE": "66.75",
    "LONGITUDE": "-150.67",
    "NAME": "GOBBLERS KNOB, AK US",
    "PRCP": "83.8",
    "TAVG": "11.11"
  },
  {
    "STATION": "ASN00002012",
    "DATE": "2018-06",
    "LATITUDE": "-18.2292",
    "LONGITUDE": "127.6636",
    "NAME": "HALLS CREEK AIRPORT, AS",
    "PRCP": "",
    "TAVG": "20.87"
  },
  {
    "STATION": "ASN00016067",
    "DATE": "2018-06",
    "LATITUDE": "-32.4398",
    "LONGITUDE": "136.0671",
    "NAME": "MOUNT IVE, AS",
    "PRCP": "20.0",
    "TAVG": "11.23"
  },
  {
    "STATION": "GME00129250",
    "DATE": "2018-06",
    "LATITUDE": "49.4744",
    "LONGITUDE": "7.0392",
    "NAME": "THOLEY, GM",
    "PRCP": "73.4",
    "TAVG": "17.84"
  },
  {
    "STATION": "GME00124774",
    "DATE": "2018-06",
    "LATITUDE": "47.6658",
    "LONGITUDE": "11.0817",
    "NAME": "BAD KOHLGRUB ROSSHOF, GM",
    "PRCP": "142.8",
    "TAVG": "16.01"
  },
  {
    "STATION": "ASN00040209",
    "DATE": "2018-06",
    "LATITUDE": "-27.4361",
    "LONGITUDE": "153.5456",
    "NAME": "POINT LOOKOUT, AS",
    "PRCP": "112.2",
    "TAVG": "18.12"
  },
  {
    "STATION": "SWE00140190",
    "DATE": "2018-06",
    "LATITUDE": "63.84",
    "LONGITUDE": "13.5",
    "NAME": "KORSVATTNET A, SW",
    "PRCP": "56.5",
    "TAVG": "8.36"
  },
  {
    "STATION": "ASN00011052",
    "DATE": "2018-06",
    "LATITUDE": "-30.8453",
    "LONGITUDE": "128.1092",
    "NAME": "FORREST, AS",
    "PRCP": "18.6",
    "TAVG": "12.67"
  },
  {
    "STATION": "EI000003969",
    "DATE": "2018-06",
    "LATITUDE": "53.3639",
    "LONGITUDE": "-6.3192",
    "NAME": "DUBLIN PHOENIX PARK, EI",
    "PRCP": "4.1",
    "TAVG": "15.81"
  },
  {
    "STATION": "SF000456110",
    "DATE": "2018-06",
    "LATITUDE": "-33.2",
    "LONGITUDE": "20.867",
    "NAME": "LAINGSBURG, SF",
    "PRCP": "",
    "TAVG": "12.36"
  },
  {
    "STATION": "NLE00152491",
    "DATE": "2018-06",
    "LATITUDE": "51.565",
    "LONGITUDE": "4.9353",
    "NAME": "GILZE RIJEN, NL",
    "PRCP": "2.1",
    "TAVG": "17.81"
  },
  {
    "STATION": "GME00131386",
    "DATE": "2018-06",
    "LATITUDE": "52.3625",
    "LONGITUDE": "12.3883",
    "NAME": "WUSTERWITZ, GM",
    "PRCP": "9.5",
    "TAVG": "19.23"
  },
  {
    "STATION": "USS0012E08S",
    "DATE": "2018-06",
    "LATITUDE": "44.47",
    "LONGITUDE": "-112.98",
    "NAME": "BEAGLE SPRINGS, MT US",
    "PRCP": "157.4",
    "TAVG": "9.21"
  },
  {
    "STATION": "NLE00152485",
    "DATE": "2018-06",
    "LATITUDE": "52.3156",
    "LONGITUDE": "4.7903",
    "NAME": "SCHIPHOL, NL",
    "PRCP": "6.3",
    "TAVG": "17.24"
  },
  {
    "STATION": "AGE00147719",
    "DATE": "2018-06",
    "LATITUDE": "33.7997",
    "LONGITUDE": "2.89",
    "NAME": "LAGHOUAT, AG",
    "PRCP": "0.3",
    "TAVG": "27.14"
  },
  {
    "STATION": "ASN00067113",
    "DATE": "2018-06",
    "LATITUDE": "-33.7195",
    "LONGITUDE": "150.6783",
    "NAME": "PENRITH LAKES AWS, AS",
    "PRCP": "31.8",
    "TAVG": "12.65"
  },
  {
    "STATION": "USS0005K21S",
    "DATE": "2018-06",
    "LATITUDE": "39.76",
    "LONGITUDE": "-105.91",
    "NAME": "JONES PASS, CO US",
    "PRCP": "17.8",
    "TAVG": "11.58"
  },
  {
    "STATION": "JM000078388",
    "DATE": "2018-06",
    "LATITUDE": "18.5",
    "LONGITUDE": "-77.917",
    "NAME": "MONTEGO BAY SANGSTE, JM",
    "PRCP": "4.9",
    "TAVG": "29.15"
  },
  {
    "STATION": "ASN00016098",
    "DATE": "2018-06",
    "LATITUDE": "-30.7051",
    "LONGITUDE": "134.5786",
    "NAME": "TARCOOLA AERO, AS",
    "PRCP": "8.2",
    "TAVG": "11.54"
  },
  {
    "STATION": "GME00121354",
    "DATE": "2018-06",
    "LATITUDE": "51.0233",
    "LONGITUDE": "13.8494",
    "NAME": "DRESDEN HOSTERWITZ, GM",
    "PRCP": "32.0",
    "TAVG": "19.15"
  },
  {
    "STATION": "USS0016C20S",
    "DATE": "2018-06",
    "LATITUDE": "46.84",
    "LONGITUDE": "-116.12",
    "NAME": "ELK BUTTE, ID US",
    "PRCP": "43.2",
    "TAVG": "10.11"
  },
  {
    "STATION": "ASN00086104",
    "DATE": "2018-06",
    "LATITUDE": "-37.871",
    "LONGITUDE": "145.2561",
    "NAME": "SCORESBY RESEARCH INSTITUTE, AS",
    "PRCP": "49.4",
    "TAVG": "9.52"
  },
  {
    "STATION": "ASN00010614",
    "DATE": "2018-06",
    "LATITUDE": "-32.9342",
    "LONGITUDE": "117.1797",
    "NAME": "NARROGIN, AS",
    "PRCP": "84.3",
    "TAVG": "10.54"
  },
  {
    "STATION": "MUM00041244",
    "DATE": "2018-06",
    "LATITUDE": "24.233",
    "LONGITUDE": "55.783",
    "NAME": "BURAIMI AUT, MU",
    "PRCP": "",
    "TAVG": "36.56"
  },
  {
    "STATION": "FIE00146493",
    "DATE": "2018-06",
    "LATITUDE": "67.9908",
    "LONGITUDE": "24.2433",
    "NAME": "KITTILA KENTTAROVA, FI",
    "PRCP": "52.2",
    "TAVG": "9.45"
  },
  {
    "STATION": "RQW00011630",
    "DATE": "2018-06",
    "LATITUDE": "18.255",
    "LONGITUDE": "-65.64083",
    "NAME": "ROOSEVELT ROADS, PR US",
    "PRCP": "100.2",
    "TAVG": "28.15"
  },
  {
    "STATION": "USS0045O04S",
    "DATE": "2018-06",
    "LATITUDE": "63.94",
    "LONGITUDE": "-145.4",
    "NAME": "GRANITE CRK, AK US",
    "PRCP": "43.1",
    "TAVG": "13.90"
  },
  {
    "STATION": "SPE00119783",
    "DATE": "2018-06",
    "LATITUDE": "36.8464",
    "LONGITUDE": "-2.3567",
    "NAME": "ALMERIA AEROPUERTO, SP",
    "PRCP": "11.6",
    "TAVG": "22.95"
  },
  {
    "STATION": "GME00129046",
    "DATE": "2018-06",
    "LATITUDE": "53.6956",
    "LONGITUDE": "8.875",
    "NAME": "KR. CUXHAVEN STEINAU, GM",
    "PRCP": "43.2",
    "TAVG": "16.73"
  },
  {
    "STATION": "ASN00047016",
    "DATE": "2018-06",
    "LATITUDE": "-34.0398",
    "LONGITUDE": "141.2652",
    "NAME": "LAKE VICTORIA STORAGE, AS",
    "PRCP": "36.7",
    "TAVG": "9.81"
  },
  {
    "STATION": "USS0014F08S",
    "DATE": "2018-06",
    "LATITUDE": "43.6",
    "LONGITUDE": "-114.67",
    "NAME": "DOLLARHIDE SUMMIT, ID US",
    "PRCP": "48.2",
    "TAVG": "10.39"
  },
  {
    "STATION": "GME00132466",
    "DATE": "2018-06",
    "LATITUDE": "51.0317",
    "LONGITUDE": "8.8156",
    "NAME": "BURGWALD BOTTENDORF, GM",
    "PRCP": "41.1",
    "TAVG": "17.47"
  },
  {
    "STATION": "ASN00081125",
    "DATE": "2018-06",
    "LATITUDE": "-36.4289",
    "LONGITUDE": "145.3947",
    "NAME": "SHEPPARTON AIRPORT, AS",
    "PRCP": "32.4",
    "TAVG": "8.63"
  },
  {
    "STATION": "MJM00013461",
    "DATE": "2018-06",
    "LATITUDE": "42.1",
    "LONGITUDE": "19.08",
    "NAME": "BAR, MJ",
    "PRCP": "47.1",
    "TAVG": "25.00"
  },
  {
    "STATION": "RSM00031474",
    "DATE": "2018-06",
    "LATITUDE": "51.633",
    "LONGITUDE": "133.317",
    "NAME": "UST UMALTA, RS",
    "PRCP": "158.2",
    "TAVG": "14.55"
  },
  {
    "STATION": "GME00102228",
    "DATE": "2018-06",
    "LATITUDE": "53.3719",
    "LONGITUDE": "7.2242",
    "NAME": "EMDEN WOLTHUSEN, GM",
    "PRCP": "35.7",
    "TAVG": "16.76"
  },